[
    {
        "int_id": 2103,
        "latitude": 46.04457908156832,
        "longitude": 14.500681276270189,
        "name": "Mirje",
        "ref_id": "602071",
        "route_groups_on_station": ["9"]
    },
    {
        "int_id": 2013,
        "latitude": 46.04601642482285,
        "longitude": 14.50218573734927,
        "name": "Križanke",
        "ref_id": "602062",
        "route_groups_on_station": ["2", "3", "11", "19", "27"],
        "ijpp_id": "1167146"
    },
    {
        "int_id": 2012,
        "latitude": 46.046206924846956,
        "longitude": 14.501890739899812,
        "name": "Križanke",
        "ref_id": "602061",
        "route_groups_on_station": ["2", "3", "11", "19", "27"],
        "ijpp_id": "1167145"
    },
    {
        "int_id": 2102,
        "latitude": 46.04586210811592,
        "longitude": 14.50071582758179,
        "name": "Mirje",
        "ref_id": "602072",
        "route_groups_on_station": ["9"]
    },
    {
        "int_id": 2014,
        "latitude": 46.04592218393601,
        "longitude": 14.50612833324487,
        "name": "Gornji trg",
        "ref_id": "602101",
        "route_groups_on_station": ["2", "3", "11", "19", "27"],
        "ijpp_id": "1165638"
    },
    {
        "int_id": 2015,
        "latitude": 46.04575848571314,
        "longitude": 14.506404983486894,
        "name": "Gornji trg",
        "ref_id": "602102",
        "route_groups_on_station": ["2", "3", "11", "19", "27"],
        "ijpp_id": "1165639"
    },
    {
        "int_id": 1917,
        "latitude": 46.04149310135918,
        "longitude": 14.500038686046366,
        "name": "Ziherlova",
        "ref_id": "602093",
        "route_groups_on_station": ["9"]
    },
    {
        "int_id": 1948,
        "latitude": 46.04667149808583,
        "longitude": 14.499275048329114,
        "name": "Aškerčeva",
        "ref_id": "602052",
        "route_groups_on_station": ["1", "6"],
        "ijpp_id": "1167199"
    },
    {
        "int_id": 1949,
        "latitude": 46.04663875548462,
        "longitude": 14.49868751504146,
        "name": "Aškerčeva",
        "ref_id": "602051",
        "route_groups_on_station": ["1", "6"],
        "ijpp_id": "1167198"
    },
    {
        "int_id": 1916,
        "latitude": 46.04038105403082,
        "longitude": 14.499701487566458,
        "name": "Ziherlova",
        "ref_id": "602092",
        "route_groups_on_station": ["9"]
    },
    {
        "int_id": 1946,
        "latitude": 46.04877079441739,
        "longitude": 14.50176933165357,
        "name": "Drama",
        "ref_id": "602022",
        "route_groups_on_station": ["1", "2", "3", "6", "9", "11", "19", "27"],
        "ijpp_id": "1167139"
    },
    {
        "int_id": 4456,
        "latitude": 46.041893563323555,
        "longitude": 14.509812063139062,
        "name": "Trnovo",
        "ref_id": "602122",
        "route_groups_on_station": ["19"],
        "ijpp_id": "1167270"
    },
    {
        "int_id": 1909,
        "latitude": 46.04098943994494,
        "longitude": 14.50918108568249,
        "name": "TRNOVO",
        "ref_id": "602121",
        "route_groups_on_station": ["16", "19"],
        "ijpp_id": "1167269"
    },
    {
        "int_id": 2017,
        "latitude": 46.04407468912032,
        "longitude": 14.510882717118971,
        "name": "Privoz",
        "ref_id": "602112",
        "route_groups_on_station": ["3", "11", "19", "27"],
        "ijpp_id": "1167158"
    },
    {
        "int_id": 2016,
        "latitude": 46.04408472769663,
        "longitude": 14.511281716734874,
        "name": "Privoz",
        "ref_id": "602111",
        "route_groups_on_station": ["3", "11", "19", "27"],
        "ijpp_id": "1167157"
    },
    {
        "int_id": 1947,
        "latitude": 46.04961326673757,
        "longitude": 14.502457612107742,
        "name": "Drama",
        "ref_id": "602021",
        "route_groups_on_station": ["1", "2", "3", "6", "9", "11", "19", "27"]
    },
    {
        "int_id": 1915,
        "latitude": 46.03854009610686,
        "longitude": 14.499928288271132,
        "name": "Murgle",
        "ref_id": "603061",
        "route_groups_on_station": ["9"]
    },
    {
        "int_id": 1910,
        "latitude": 46.03790546595098,
        "longitude": 14.505476650240734,
        "name": "Veliki štradon",
        "ref_id": "603082",
        "route_groups_on_station": ["16", "19"],
        "ijpp_id": "1167267"
    },
    {
        "int_id": 3572,
        "latitude": 46.037868518738264,
        "longitude": 14.500715391421725,
        "name": "Murgle",
        "ref_id": "603064",
        "route_groups_on_station": ["9"]
    },
    {
        "int_id": 1911,
        "latitude": 46.03774255261935,
        "longitude": 14.505012479402257,
        "name": "Veliki štradon",
        "ref_id": "603081",
        "route_groups_on_station": ["16", "19"],
        "ijpp_id": "1167268"
    },
    {
        "int_id": 4457,
        "latitude": 46.03738531198905,
        "longitude": 14.50361023764877,
        "name": "Opekarska",
        "ref_id": "603171",
        "route_groups_on_station": ["9"]
    },
    {
        "int_id": 4458,
        "latitude": 46.037148549651086,
        "longitude": 14.503911441960199,
        "name": "Opekarska",
        "ref_id": "603172",
        "route_groups_on_station": ["9"]
    },
    {
        "int_id": 1951,
        "latitude": 46.04704144812466,
        "longitude": 14.494322870182764,
        "name": "Tobačna",
        "ref_id": "602041",
        "route_groups_on_station": ["1", "6"],
        "ijpp_id": "1165690"
    },
    {
        "int_id": 2197,
        "latitude": 46.05000411936025,
        "longitude": 14.497363877001073,
        "name": "Cankarjev dom",
        "ref_id": "602012",
        "route_groups_on_station": ["14", "18"]
    },
    {
        "int_id": 1950,
        "latitude": 46.04696286236259,
        "longitude": 14.493442460567477,
        "name": "Tobačna",
        "ref_id": "602042",
        "route_groups_on_station": [
            "1",
            "6",
            "45",
            "46",
            "47",
            "48",
            "51",
            "54",
            "56"
        ],
        "ijpp_id": "1165689"
    },
    {
        "int_id": 1944,
        "latitude": 46.051409918009185,
        "longitude": 14.503049411420571,
        "name": "Konzorcij",
        "ref_id": "601012",
        "route_groups_on_station": [
            "1",
            "2",
            "3",
            "6",
            "9",
            "11",
            "14",
            "18",
            "19",
            "27"
        ],
        "ijpp_id": "1167156"
    },
    {
        "int_id": 2198,
        "latitude": 46.05078363662649,
        "longitude": 14.49833266979766,
        "name": "Cankarjev dom",
        "ref_id": "602011",
        "route_groups_on_station": ["14", "18"]
    },
    {
        "int_id": 1945,
        "latitude": 46.05193912778263,
        "longitude": 14.503349846425639,
        "name": "Pošta",
        "ref_id": "601011",
        "route_groups_on_station": [
            "1",
            "2",
            "3",
            "6",
            "9",
            "11",
            "14",
            "18",
            "19",
            "27"
        ],
        "ijpp_id": "1167155"
    },
    {
        "int_id": 3312,
        "latitude": 46.05035292803693,
        "longitude": 14.510503255855335,
        "name": "Lutkovno gl.",
        "ref_id": "501032",
        "route_groups_on_station": ["2"]
    },
    {
        "int_id": 3313,
        "latitude": 46.050484296633286,
        "longitude": 14.510651691555733,
        "name": "Lutkovno gl.",
        "ref_id": "501031",
        "route_groups_on_station": ["2"]
    },
    {
        "int_id": 1953,
        "latitude": 46.04571836061939,
        "longitude": 14.490460044451936,
        "name": "Hajdrihova",
        "ref_id": "602031",
        "route_groups_on_station": [
            "1",
            "6",
            "45",
            "46",
            "47",
            "48",
            "49",
            "51",
            "54",
            "56"
        ],
        "ijpp_id": "1165643"
    },
    {
        "int_id": 3311,
        "latitude": 46.05140527253405,
        "longitude": 14.510719016944469,
        "name": "Zmajski most",
        "ref_id": "501021",
        "route_groups_on_station": ["13", "20", "68", "69", "76", "78", "82"],
        "ijpp_id": "1165699"
    },
    {
        "int_id": 1952,
        "latitude": 46.04580323252228,
        "longitude": 14.49006330078456,
        "name": "Hajdrihova",
        "ref_id": "602032",
        "route_groups_on_station": ["1", "6"],
        "ijpp_id": "1165644"
    },
    {
        "int_id": 3315,
        "latitude": 46.04461559914941,
        "longitude": 14.516821206299472,
        "name": "Streliška",
        "ref_id": "502031",
        "route_groups_on_station": ["11"]
    },
    {
        "int_id": 1957,
        "latitude": 46.04083730142569,
        "longitude": 14.489917655092578,
        "name": "Gerbičeva",
        "ref_id": "603021",
        "route_groups_on_station": ["1"]
    },
    {
        "int_id": 3973,
        "latitude": 46.052949185592624,
        "longitude": 14.498143747963594,
        "name": "Bleiweisova",
        "ref_id": "701011",
        "route_groups_on_station": [
            "45",
            "46",
            "47",
            "48",
            "49",
            "51",
            "54",
            "56"
        ],
        "ijpp_id": "1121831"
    },
    {
        "int_id": 1954,
        "latitude": 46.04206743341863,
        "longitude": 14.489382723199725,
        "name": "Jadranska",
        "ref_id": "603012",
        "route_groups_on_station": ["1"]
    },
    {
        "int_id": 4455,
        "latitude": 46.0536224704492,
        "longitude": 14.504161970332195,
        "name": "Ajdovščina",
        "ref_id": "600021",
        "route_groups_on_station": [
            "1",
            "2",
            "3",
            "6",
            "9",
            "11",
            "14",
            "18",
            "19",
            "27"
        ]
    },
    {
        "int_id": 3310,
        "latitude": 46.05232493919745,
        "longitude": 14.510248521884751,
        "name": "Zmajski most",
        "ref_id": "501022",
        "route_groups_on_station": ["13", "20", "68", "69", "76", "78", "82"],
        "ijpp_id": "1165698"
    },
    {
        "int_id": 1956,
        "latitude": 46.0406662371267,
        "longitude": 14.489850461975987,
        "name": "Gerbičeva",
        "ref_id": "603022",
        "route_groups_on_station": ["1"]
    },
    {
        "int_id": 3340,
        "latitude": 46.0530535431688,
        "longitude": 14.497929073009784,
        "name": "Bleiweisova",
        "ref_id": "701012",
        "route_groups_on_station": ["45", "46", "47", "48", "51", "54", "56"]
    },
    {
        "int_id": 3330,
        "latitude": 46.053762229983064,
        "longitude": 14.504131757340165,
        "name": "Ajdovščina",
        "ref_id": "600022",
        "route_groups_on_station": [
            "1",
            "2",
            "3",
            "6",
            "9",
            "11",
            "14",
            "18",
            "19",
            "27"
        ]
    },
    {
        "int_id": 1984,
        "latitude": 46.05032206120224,
        "longitude": 14.51411334117184,
        "name": "Poljanska",
        "ref_id": "502012",
        "route_groups_on_station": ["2", "13", "20"]
    },
    {
        "int_id": 1955,
        "latitude": 46.0436190015123,
        "longitude": 14.488517357337741,
        "name": "Jadranska",
        "ref_id": "603011",
        "route_groups_on_station": ["1"]
    },
    {
        "int_id": 1983,
        "latitude": 46.050415182474296,
        "longitude": 14.514440440537097,
        "name": "Poljanska",
        "ref_id": "502011",
        "route_groups_on_station": ["2", "13", "20"]
    },
    {
        "int_id": 3309,
        "latitude": 46.053881766652985,
        "longitude": 14.506376077127886,
        "name": "Dalmatinova",
        "ref_id": "600032",
        "route_groups_on_station": ["5", "13", "20"]
    },
    {
        "int_id": 2196,
        "latitude": 46.051216800744,
        "longitude": 14.492358331698568,
        "name": "Pod Rožnikom",
        "ref_id": "702011",
        "route_groups_on_station": ["14"]
    },
    {
        "int_id": 3319,
        "latitude": 46.0360206156614,
        "longitude": 14.513098218638348,
        "name": "Ižanska",
        "ref_id": "603121",
        "route_groups_on_station": ["27"]
    },
    {
        "int_id": 1912,
        "latitude": 46.033328106263866,
        "longitude": 14.501923687218099,
        "name": "Pot na Rakovo jelšo",
        "ref_id": "603072",
        "route_groups_on_station": ["9", "16"]
    },
    {
        "int_id": 2018,
        "latitude": 46.03944305707432,
        "longitude": 14.516998075097007,
        "name": "Strelišče",
        "ref_id": "503011",
        "route_groups_on_station": ["3", "27", "68", "69", "76", "78", "82"]
    },
    {
        "int_id": 2195,
        "latitude": 46.05110624679304,
        "longitude": 14.491842256453289,
        "name": "Pod Rožnikom",
        "ref_id": "702012",
        "route_groups_on_station": ["14"]
    },
    {
        "int_id": 3316,
        "latitude": 46.044981742799514,
        "longitude": 14.518372170423334,
        "name": "Streliška",
        "ref_id": "502032",
        "route_groups_on_station": ["11"]
    },
    {
        "int_id": 3318,
        "latitude": 46.03558753059646,
        "longitude": 14.51292589589644,
        "name": "Ižanska",
        "ref_id": "603122",
        "route_groups_on_station": ["27"]
    },
    {
        "int_id": 3317,
        "latitude": 46.038558802762054,
        "longitude": 14.516652950063985,
        "name": "Orlova",
        "ref_id": "503014",
        "route_groups_on_station": ["27"]
    },
    {
        "int_id": 2045,
        "latitude": 46.05459933629649,
        "longitude": 14.506793319401538,
        "name": "Tavčarjeva",
        "ref_id": "500011",
        "route_groups_on_station": ["5", "13", "20"]
    },
    {
        "int_id": 1942,
        "latitude": 46.05490626935668,
        "longitude": 14.503716949310403,
        "name": "Gosposvetska",
        "ref_id": "700011",
        "route_groups_on_station": ["1", "3", "5", "7", "8", "25"],
        "ijpp_id": "1167336"
    },
    {
        "int_id": 3334,
        "latitude": 46.049783383901925,
        "longitude": 14.516542468239784,
        "name": "Ambrožev trg",
        "ref_id": "502014",
        "route_groups_on_station": ["2", "5", "13", "20"]
    },
    {
        "int_id": 1913,
        "latitude": 46.03286746834803,
        "longitude": 14.501380933018648,
        "name": "Pot na Rakovo jelšo",
        "ref_id": "603071",
        "route_groups_on_station": ["9", "16"]
    },
    {
        "int_id": 2316,
        "latitude": 46.034205161263046,
        "longitude": 14.511115324279968,
        "name": "Livada",
        "ref_id": "603091",
        "route_groups_on_station": ["19"],
        "ijpp_id": "1167235"
    },
    {
        "int_id": 3335,
        "latitude": 46.04977416342085,
        "longitude": 14.516916617763334,
        "name": "Ambrožev trg",
        "ref_id": "502013",
        "route_groups_on_station": ["2", "5", "13", "20"]
    },
    {
        "int_id": 2047,
        "latitude": 46.053056457151996,
        "longitude": 14.513492118897961,
        "name": "Ilirska",
        "ref_id": "501011",
        "route_groups_on_station": ["5"]
    },
    {
        "int_id": 2048,
        "latitude": 46.05289306377461,
        "longitude": 14.513902539653984,
        "name": "Ilirska",
        "ref_id": "501012",
        "route_groups_on_station": ["5"]
    },
    {
        "int_id": 2194,
        "latitude": 46.049470092355044,
        "longitude": 14.488174347175713,
        "name": "Študentsko naselje",
        "ref_id": "702021",
        "route_groups_on_station": ["14"]
    },
    {
        "int_id": 2019,
        "latitude": 46.0382487254907,
        "longitude": 14.518193134575956,
        "name": "Strelišče",
        "ref_id": "503012",
        "route_groups_on_station": ["3", "68", "69", "76", "78", "82"],
        "ijpp_id": "1165678"
    },
    {
        "int_id": 1959,
        "latitude": 46.03660886519545,
        "longitude": 14.489423728291971,
        "name": "Krimska",
        "ref_id": "603031",
        "route_groups_on_station": ["1"]
    },
    {
        "int_id": 2193,
        "latitude": 46.04935461880453,
        "longitude": 14.48749317633616,
        "name": "Študentsko naselje",
        "ref_id": "702022",
        "route_groups_on_station": ["14"]
    },
    {
        "int_id": 3314,
        "latitude": 46.04836121470528,
        "longitude": 14.51949491382894,
        "name": "Cukrarna",
        "ref_id": "502021",
        "route_groups_on_station": ["11"]
    },
    {
        "int_id": 1958,
        "latitude": 46.0366120218806,
        "longitude": 14.488986926573585,
        "name": "Krimska",
        "ref_id": "603032",
        "route_groups_on_station": ["1"]
    },
    {
        "int_id": 1943,
        "latitude": 46.056127816187626,
        "longitude": 14.502123332668676,
        "name": "Gosposvetska",
        "ref_id": "700012",
        "route_groups_on_station": ["1", "3", "5", "7", "8", "25"],
        "ijpp_id": "1167386"
    },
    {
        "int_id": 1977,
        "latitude": 46.05620922714199,
        "longitude": 14.505406364005065,
        "name": "Bavarski dvor",
        "ref_id": "600011",
        "route_groups_on_station": [
            "2",
            "3",
            "5",
            "6",
            "7",
            "8",
            "9",
            "11",
            "13",
            "14",
            "18",
            "19",
            "20",
            "25",
            "27",
            "51",
            "56"
        ]
    },
    {
        "int_id": 2315,
        "latitude": 46.03320228899749,
        "longitude": 14.512451281080388,
        "name": "Livada",
        "ref_id": "603092",
        "route_groups_on_station": ["19"],
        "ijpp_id": "1167236"
    },
    {
        "int_id": 3717,
        "latitude": 46.049264479130635,
        "longitude": 14.519642887209585,
        "name": "Cukrarna",
        "ref_id": "502024",
        "route_groups_on_station": ["2", "11", "20"]
    },
    {
        "int_id": 1976,
        "latitude": 46.05655092100059,
        "longitude": 14.505422989436322,
        "name": "Bavarski dvor",
        "ref_id": "600012",
        "route_groups_on_station": [
            "1",
            "2",
            "3",
            "5",
            "6",
            "7",
            "8",
            "9",
            "11",
            "13",
            "14",
            "18",
            "19",
            "20",
            "25",
            "27",
            "51",
            "56"
        ],
        "ijpp_id": "1167196"
    },
    {
        "int_id": 2049,
        "latitude": 46.05249921677039,
        "longitude": 14.516756404935254,
        "name": "Hrvatski trg",
        "ref_id": "402011",
        "route_groups_on_station": ["5"]
    },
    {
        "int_id": 2244,
        "latitude": 46.048723956717524,
        "longitude": 14.52020151665137,
        "name": "Cukrarna",
        "ref_id": "502022",
        "route_groups_on_station": ["5", "13"]
    },
    {
        "int_id": 4763,
        "latitude": 46.03310530835847,
        "longitude": 14.51318374154086,
        "name": "Galjevica",
        "ref_id": "603162",
        "route_groups_on_station": ["27"]
    },
    {
        "int_id": 4761,
        "latitude": 46.03318228517608,
        "longitude": 14.513371060249678,
        "name": "Galjevica",
        "ref_id": "603161",
        "route_groups_on_station": ["27"]
    },
    {
        "int_id": 2050,
        "latitude": 46.052222142081646,
        "longitude": 14.51805674451882,
        "name": "Hrvatski trg",
        "ref_id": "402012",
        "route_groups_on_station": ["5"]
    },
    {
        "int_id": 2094,
        "latitude": 46.04381353701049,
        "longitude": 14.483851925771793,
        "name": "Vič Glince",
        "ref_id": "703081",
        "route_groups_on_station": ["6", "46", "47", "48", "51", "54", "56"]
    },
    {
        "int_id": 2093,
        "latitude": 46.043975188677365,
        "longitude": 14.48376150394095,
        "name": "Vič Glince",
        "ref_id": "703082",
        "route_groups_on_station": ["6", "46", "47", "48", "51", "54", "56"]
    },
    {
        "int_id": 4363,
        "latitude": 46.05261046471199,
        "longitude": 14.488079046188197,
        "name": "Svetčeva",
        "ref_id": "702031",
        "route_groups_on_station": ["18"]
    },
    {
        "int_id": 4346,
        "latitude": 46.05771980693072,
        "longitude": 14.508122616029567,
        "name": "KOLODVOR",
        "ref_id": "300015",
        "route_groups_on_station": ["18"]
    },
    {
        "int_id": 4362,
        "latitude": 46.05296394171425,
        "longitude": 14.487135581434988,
        "name": "Svetčeva",
        "ref_id": "702032",
        "route_groups_on_station": ["18"]
    },
    {
        "int_id": 1974,
        "latitude": 46.05765849482998,
        "longitude": 14.509347111277467,
        "name": "Kolodvor",
        "ref_id": "300011",
        "route_groups_on_station": ["2", "9", "12", "25", "27"],
        "ijpp_id": "1167299"
    },
    {
        "int_id": 2053,
        "latitude": 46.04893425272288,
        "longitude": 14.522732440599368,
        "name": "Gornje Poljane",
        "ref_id": "402061",
        "route_groups_on_station": ["5", "13"]
    },
    {
        "int_id": 2104,
        "latitude": 46.05335729684588,
        "longitude": 14.519001341475473,
        "name": "Poliklinika",
        "ref_id": "402022",
        "route_groups_on_station": ["9", "25"]
    },
    {
        "int_id": 3718,
        "latitude": 46.05772491004307,
        "longitude": 14.509928175090725,
        "name": "Ljubljana AP",
        "ref_id": "300013",
        "route_groups_on_station": [
            "45",
            "46",
            "47",
            "48",
            "49",
            "51",
            "54",
            "56",
            "60",
            "68",
            "69",
            "76",
            "78",
            "82"
        ]
    },
    {
        "int_id": 1975,
        "latitude": 46.057573121529174,
        "longitude": 14.511195682031877,
        "name": "Kolodvor",
        "ref_id": "300012",
        "route_groups_on_station": ["2", "9", "12", "25", "27"],
        "ijpp_id": "1167300"
    },
    {
        "int_id": 2192,
        "latitude": 46.04799928880887,
        "longitude": 14.482653297922923,
        "name": "Rožna dolina",
        "ref_id": "703011",
        "route_groups_on_station": ["14"]
    },
    {
        "int_id": 2105,
        "latitude": 46.053649099283206,
        "longitude": 14.5191737965513,
        "name": "Poliklinika",
        "ref_id": "402021",
        "route_groups_on_station": ["9", "25"],
        "ijpp_id": "1167303"
    },
    {
        "int_id": 1985,
        "latitude": 46.05243308991905,
        "longitude": 14.520597076214223,
        "name": "Klinični center",
        "ref_id": "402031",
        "route_groups_on_station": ["2", "9", "11", "20", "25"],
        "ijpp_id": "1167304"
    },
    {
        "int_id": 1986,
        "latitude": 46.0523150495647,
        "longitude": 14.520920812936316,
        "name": "Klinični center",
        "ref_id": "402032",
        "route_groups_on_station": ["2", "9", "11", "20", "25"],
        "ijpp_id": "1167305"
    },
    {
        "int_id": 2191,
        "latitude": 46.04790677026385,
        "longitude": 14.482087881640428,
        "name": "Rožna dolina",
        "ref_id": "703012",
        "route_groups_on_station": ["14"]
    },
    {
        "int_id": 4677,
        "latitude": 46.03038901249185,
        "longitude": 14.49313668522677,
        "name": "Park varne mobilnosti",
        "ref_id": "603202",
        "route_groups_on_station": ["16"]
    },
    {
        "int_id": 3716,
        "latitude": 46.03165962242845,
        "longitude": 14.516355408794492,
        "name": "Golouhova",
        "ref_id": "603152",
        "route_groups_on_station": ["27"]
    },
    {
        "int_id": 1961,
        "latitude": 46.035367348625215,
        "longitude": 14.48443122465449,
        "name": "Koprska",
        "ref_id": "603041",
        "route_groups_on_station": ["1"]
    },
    {
        "int_id": 2225,
        "latitude": 46.045629899914026,
        "longitude": 14.480826471615448,
        "name": "Cesta XV",
        "ref_id": "703022",
        "route_groups_on_station": ["14"]
    },
    {
        "int_id": 2054,
        "latitude": 46.04872329277194,
        "longitude": 14.524467976769186,
        "name": "Gornje Poljane",
        "ref_id": "402062",
        "route_groups_on_station": ["5", "13"]
    },
    {
        "int_id": 2226,
        "latitude": 46.04594858685515,
        "longitude": 14.480814321003281,
        "name": "Cesta XV",
        "ref_id": "703021",
        "route_groups_on_station": ["14"]
    },
    {
        "int_id": 2020,
        "latitude": 46.03631396743803,
        "longitude": 14.52280401266647,
        "name": "Rakovnik",
        "ref_id": "503021",
        "route_groups_on_station": ["3", "82"],
        "ijpp_id": "1165661"
    },
    {
        "int_id": 3715,
        "latitude": 46.031422596648106,
        "longitude": 14.517054374408325,
        "name": "Golouhova",
        "ref_id": "603151",
        "route_groups_on_station": ["27"]
    },
    {
        "int_id": 4676,
        "latitude": 46.02995850325718,
        "longitude": 14.492149448833462,
        "name": "Park varne mobilnosti",
        "ref_id": "603201",
        "route_groups_on_station": ["16"]
    },
    {
        "int_id": 3509,
        "latitude": 46.035272096240476,
        "longitude": 14.483460129051377,
        "name": "Koprska",
        "ref_id": "603044",
        "route_groups_on_station": ["1"]
    },
    {
        "int_id": 3336,
        "latitude": 46.05972416204005,
        "longitude": 14.509243464488492,
        "name": "Navje",
        "ref_id": "100012",
        "route_groups_on_station": ["3", "11", "12"],
        "ijpp_id": "1121396"
    },
    {
        "int_id": 1973,
        "latitude": 46.057534905230185,
        "longitude": 14.516734590603274,
        "name": "Friškovec",
        "ref_id": "301012",
        "route_groups_on_station": ["2", "9", "12", "25", "27"],
        "ijpp_id": "1165637"
    },
    {
        "int_id": 1941,
        "latitude": 46.06024925863737,
        "longitude": 14.497711301893574,
        "name": "Tivoli",
        "ref_id": "801012",
        "route_groups_on_station": ["1", "3", "5", "7", "8", "25", "60"],
        "ijpp_id": "1165687"
    },
    {
        "int_id": 2021,
        "latitude": 46.03547957549881,
        "longitude": 14.5240307872133,
        "name": "Rakovnik",
        "ref_id": "503022",
        "route_groups_on_station": ["3", "82"],
        "ijpp_id": "1165660"
    },
    {
        "int_id": 2318,
        "latitude": 46.0282306619564,
        "longitude": 14.511866038732483,
        "name": "Ilovica",
        "ref_id": "603101",
        "route_groups_on_station": ["19"]
    },
    {
        "int_id": 2090,
        "latitude": 46.060693727760665,
        "longitude": 14.507109484946202,
        "name": "Razstavišče",
        "ref_id": "100021",
        "route_groups_on_station": [
            "3",
            "6",
            "7",
            "8",
            "11",
            "12",
            "13",
            "14",
            "19",
            "20"
        ],
        "ijpp_id": "1167210"
    },
    {
        "int_id": 1940,
        "latitude": 46.06044337215237,
        "longitude": 14.497162927751866,
        "name": "Tivoli",
        "ref_id": "801011",
        "route_groups_on_station": ["1", "3", "5", "7", "8", "25", "60"],
        "ijpp_id": "1165686"
    },
    {
        "int_id": 4459,
        "latitude": 46.02697684662573,
        "longitude": 14.499829330499676,
        "name": "BARJE P+R",
        "ref_id": "603181",
        "route_groups_on_station": ["9"]
    },
    {
        "int_id": 2317,
        "latitude": 46.02780233737735,
        "longitude": 14.511614657224847,
        "name": "Ilovica",
        "ref_id": "603102",
        "route_groups_on_station": ["19"],
        "ijpp_id": "1167234"
    },
    {
        "int_id": 1972,
        "latitude": 46.05743182147702,
        "longitude": 14.518346572914368,
        "name": "Friškovec",
        "ref_id": "301011",
        "route_groups_on_station": ["2", "9", "12", "25", "27"],
        "ijpp_id": "1165635"
    },
    {
        "int_id": 2055,
        "latitude": 46.050298762788245,
        "longitude": 14.52647795579683,
        "name": "Glonarjeva",
        "ref_id": "402051",
        "route_groups_on_station": ["5"]
    },
    {
        "int_id": 2089,
        "latitude": 46.06115921299417,
        "longitude": 14.507648311161578,
        "name": "Razstavišče",
        "ref_id": "100022",
        "route_groups_on_station": [
            "6",
            "7",
            "8",
            "11",
            "13",
            "14",
            "19",
            "20"
        ],
        "ijpp_id": "1167211"
    },
    {
        "int_id": 2096,
        "latitude": 46.042101680979414,
        "longitude": 14.477929299515761,
        "name": "Vič",
        "ref_id": "703091",
        "route_groups_on_station": [
            "6",
            "45",
            "46",
            "47",
            "48",
            "49",
            "51",
            "54",
            "56"
        ],
        "ijpp_id": "1165696"
    },
    {
        "int_id": 2095,
        "latitude": 46.04229840964592,
        "longitude": 14.477842231927482,
        "name": "Vič",
        "ref_id": "703092",
        "route_groups_on_station": [
            "6",
            "45",
            "46",
            "47",
            "48",
            "51",
            "54",
            "56"
        ],
        "ijpp_id": "1165697"
    },
    {
        "int_id": 4374,
        "latitude": 46.05132018323867,
        "longitude": 14.479674778247933,
        "name": "Večna pot",
        "ref_id": "703181",
        "route_groups_on_station": ["18"]
    },
    {
        "int_id": 2056,
        "latitude": 46.050571626483496,
        "longitude": 14.527081132564854,
        "name": "Glonarjeva",
        "ref_id": "402052",
        "route_groups_on_station": ["5"]
    },
    {
        "int_id": 4233,
        "latitude": 46.05088961787435,
        "longitude": 14.478593261645546,
        "name": "Večna pot",
        "ref_id": "703182",
        "route_groups_on_station": ["18"]
    },
    {
        "int_id": 3307,
        "latitude": 46.06103968748721,
        "longitude": 14.5132960445235,
        "name": "ŽELEZNA",
        "ref_id": "201011",
        "route_groups_on_station": ["3", "11", "12"]
    },
    {
        "int_id": 4510,
        "latitude": 46.06125433750317,
        "longitude": 14.513248855397979,
        "name": "ŽELEZNA",
        "ref_id": "201012",
        "route_groups_on_station": ["6"]
    },
    {
        "int_id": 3323,
        "latitude": 46.0295826802633,
        "longitude": 14.521110047265843,
        "name": "Mihov štradon",
        "ref_id": "503051",
        "route_groups_on_station": ["27"]
    },
    {
        "int_id": 2160,
        "latitude": 46.04841496955946,
        "longitude": 14.529775463846997,
        "name": "Pod Golovcem",
        "ref_id": "403032",
        "route_groups_on_station": ["13"]
    },
    {
        "int_id": 2159,
        "latitude": 46.04856094155957,
        "longitude": 14.529890681713864,
        "name": "Pod Golovcem",
        "ref_id": "403031",
        "route_groups_on_station": ["13"]
    },
    {
        "int_id": 2190,
        "latitude": 46.04489340285184,
        "longitude": 14.475148006958525,
        "name": "Jamnikarjeva",
        "ref_id": "703031",
        "route_groups_on_station": ["14"]
    },
    {
        "int_id": 1970,
        "latitude": 46.059411374727475,
        "longitude": 14.520621868483126,
        "name": "Viadukt",
        "ref_id": "202011",
        "route_groups_on_station": ["2", "12", "27"],
        "ijpp_id": "1165693"
    },
    {
        "int_id": 4692,
        "latitude": 46.03879042176055,
        "longitude": 14.47556382983258,
        "name": "Tomažičeva",
        "ref_id": "603211",
        "route_groups_on_station": ["16"]
    },
    {
        "int_id": 3322,
        "latitude": 46.02899929441605,
        "longitude": 14.522042744356833,
        "name": "Mihov štradon",
        "ref_id": "503052",
        "route_groups_on_station": ["27"]
    },
    {
        "int_id": 3511,
        "latitude": 46.03386026085012,
        "longitude": 14.478344482655274,
        "name": "Tbilisijska",
        "ref_id": "603141",
        "route_groups_on_station": ["1"]
    },
    {
        "int_id": 4698,
        "latitude": 46.0382881220726,
        "longitude": 14.47556856251884,
        "name": "Tomažičeva",
        "ref_id": "603212",
        "route_groups_on_station": ["16"]
    },
    {
        "int_id": 1971,
        "latitude": 46.05957506304405,
        "longitude": 14.520962056123448,
        "name": "Viadukt",
        "ref_id": "202012",
        "route_groups_on_station": ["2", "12", "27"],
        "ijpp_id": "1165695"
    },
    {
        "int_id": 2202,
        "latitude": 46.0638771403112,
        "longitude": 14.50464596208883,
        "name": "Parmova",
        "ref_id": "101022",
        "route_groups_on_station": ["14"]
    },
    {
        "int_id": 2201,
        "latitude": 46.06374005200033,
        "longitude": 14.507465463613887,
        "name": "Parmova",
        "ref_id": "101021",
        "route_groups_on_station": ["14"]
    },
    {
        "int_id": 3510,
        "latitude": 46.03387224993902,
        "longitude": 14.477944803472223,
        "name": "Tbilisijska",
        "ref_id": "603142",
        "route_groups_on_station": ["1"]
    },
    {
        "int_id": 2320,
        "latitude": 46.02455292807993,
        "longitude": 14.511258052080212,
        "name": "Lahova pot",
        "ref_id": "603111",
        "route_groups_on_station": ["19"],
        "ijpp_id": "1167232"
    },
    {
        "int_id": 1987,
        "latitude": 46.05423551624649,
        "longitude": 14.528111500868212,
        "name": "Bolnica",
        "ref_id": "402041",
        "route_groups_on_station": ["2", "9", "11", "20", "25"],
        "ijpp_id": "1167306"
    },
    {
        "int_id": 2189,
        "latitude": 46.045225017880206,
        "longitude": 14.47397293089054,
        "name": "Jamnikarjeva",
        "ref_id": "703032",
        "route_groups_on_station": ["14"]
    },
    {
        "int_id": 2319,
        "latitude": 46.02432315961766,
        "longitude": 14.51103971692962,
        "name": "Lahova pot",
        "ref_id": "603112",
        "route_groups_on_station": ["19"]
    },
    {
        "int_id": 4716,
        "latitude": 46.034045536655185,
        "longitude": 14.47732351555654,
        "name": "Tbilisijska",
        "ref_id": "603143",
        "route_groups_on_station": ["16"]
    },
    {
        "int_id": 1875,
        "latitude": 46.06351820057792,
        "longitude": 14.511629429888021,
        "name": "Bežigrad",
        "ref_id": "101032",
        "route_groups_on_station": ["6", "7", "13", "20", "22"],
        "ijpp_id": "1167207"
    },
    {
        "int_id": 4679,
        "latitude": 46.03051463866298,
        "longitude": 14.480692276851881,
        "name": "C. dveh cesarjev",
        "ref_id": "704161",
        "route_groups_on_station": ["16"]
    },
    {
        "int_id": 4739,
        "latitude": 46.03408364681442,
        "longitude": 14.477066803785139,
        "name": "Tbilisijska",
        "ref_id": "603144",
        "route_groups_on_station": ["16"]
    },
    {
        "int_id": 1874,
        "latitude": 46.06377198743333,
        "longitude": 14.51170293033344,
        "name": "Bežigrad",
        "ref_id": "101031",
        "route_groups_on_station": ["3", "7", "11", "12", "13", "20", "22"],
        "ijpp_id": "1167208"
    },
    {
        "int_id": 1938,
        "latitude": 46.063847193176215,
        "longitude": 14.494406373626354,
        "name": "Stara cerkev",
        "ref_id": "802011",
        "route_groups_on_station": ["1", "3", "5", "7", "8", "25"],
        "ijpp_id": "1167161"
    },
    {
        "int_id": 4680,
        "latitude": 46.03085459525508,
        "longitude": 14.479537295256112,
        "name": "C. dveh cesarjev",
        "ref_id": "704162",
        "route_groups_on_station": ["16"]
    },
    {
        "int_id": 1988,
        "latitude": 46.05442020059422,
        "longitude": 14.52930689100994,
        "name": "Bolnica",
        "ref_id": "402042",
        "route_groups_on_station": ["2", "9", "11", "20", "25"],
        "ijpp_id": "1167307"
    },
    {
        "int_id": 2023,
        "latitude": 46.03243875993698,
        "longitude": 14.528571508111995,
        "name": "Akademija",
        "ref_id": "503032",
        "route_groups_on_station": ["3"],
        "ijpp_id": "1167237"
    },
    {
        "int_id": 2097,
        "latitude": 46.040139594708904,
        "longitude": 14.473076808662263,
        "name": "Bonifacija",
        "ref_id": "703102",
        "route_groups_on_station": ["6", "16"],
        "ijpp_id": "1167202"
    },
    {
        "int_id": 2087,
        "latitude": 46.064856375623904,
        "longitude": 14.508736530153918,
        "name": "Astra",
        "ref_id": "101051",
        "route_groups_on_station": ["6", "8", "11", "19", "22"],
        "ijpp_id": "1167271"
    },
    {
        "int_id": 2203,
        "latitude": 46.065298091748005,
        "longitude": 14.502941762894057,
        "name": "Bratov Židan",
        "ref_id": "101061",
        "route_groups_on_station": ["14"]
    },
    {
        "int_id": 2204,
        "latitude": 46.06539101707486,
        "longitude": 14.503076769559804,
        "name": "Bratov Židan",
        "ref_id": "101062",
        "route_groups_on_station": ["14"]
    },
    {
        "int_id": 2088,
        "latitude": 46.06500340722182,
        "longitude": 14.50910151184304,
        "name": "Astra",
        "ref_id": "101052",
        "route_groups_on_station": ["6", "8", "11", "19", "22"],
        "ijpp_id": "1167272"
    },
    {
        "int_id": 2098,
        "latitude": 46.039667829572636,
        "longitude": 14.47267558171447,
        "name": "Bonifacija",
        "ref_id": "703101",
        "route_groups_on_station": ["6", "16"],
        "ijpp_id": "1167203"
    },
    {
        "int_id": 2022,
        "latitude": 46.03220276241301,
        "longitude": 14.529259506748513,
        "name": "Akademija",
        "ref_id": "503031",
        "route_groups_on_station": ["3"],
        "ijpp_id": "1167238"
    },
    {
        "int_id": 1939,
        "latitude": 46.06498811972028,
        "longitude": 14.49416045398979,
        "name": "Stara cerkev",
        "ref_id": "802012",
        "route_groups_on_station": ["1", "3", "5", "7", "8", "25"],
        "ijpp_id": "1167162"
    },
    {
        "int_id": 2331,
        "latitude": 46.06508934434276,
        "longitude": 14.51380550388939,
        "name": "Kržičeva",
        "ref_id": "101034",
        "route_groups_on_station": ["13", "20"]
    },
    {
        "int_id": 2057,
        "latitude": 46.053236836333056,
        "longitude": 14.532814735764461,
        "name": "Jana Husa",
        "ref_id": "403011",
        "route_groups_on_station": ["5"]
    },
    {
        "int_id": 2058,
        "latitude": 46.05317498699911,
        "longitude": 14.533083354598972,
        "name": "Jana Husa",
        "ref_id": "403012",
        "route_groups_on_station": ["5"]
    },
    {
        "int_id": 2242,
        "latitude": 46.06675612541409,
        "longitude": 14.50484745973075,
        "name": "Samova",
        "ref_id": "102012",
        "route_groups_on_station": ["22"]
    },
    {
        "int_id": 1877,
        "latitude": 46.06469642583071,
        "longitude": 14.517198508708603,
        "name": "Prekmurska",
        "ref_id": "202022",
        "route_groups_on_station": ["7", "22"]
    },
    {
        "int_id": 3476,
        "latitude": 46.052131157846944,
        "longitude": 14.472137340423952,
        "name": "Živalski vrt-ZOO",
        "ref_id": "703121",
        "route_groups_on_station": ["18"]
    },
    {
        "int_id": 1876,
        "latitude": 46.064879767276,
        "longitude": 14.517277139330432,
        "name": "Prekmurska",
        "ref_id": "202021",
        "route_groups_on_station": ["7", "22"]
    },
    {
        "int_id": 2241,
        "latitude": 46.067106081972895,
        "longitude": 14.505334009290777,
        "name": "Samova",
        "ref_id": "102011",
        "route_groups_on_station": ["22"]
    },
    {
        "int_id": 2188,
        "latitude": 46.045957451977,
        "longitude": 14.469598319109831,
        "name": "Viško polje",
        "ref_id": "703041",
        "route_groups_on_station": ["14"]
    },
    {
        "int_id": 1968,
        "latitude": 46.062253539913314,
        "longitude": 14.524204332949477,
        "name": "Savsko naselje",
        "ref_id": "202041",
        "route_groups_on_station": ["2"],
        "ijpp_id": "1165675"
    },
    {
        "int_id": 3477,
        "latitude": 46.05279928316414,
        "longitude": 14.471696761468905,
        "name": "Živalski vrt-ZOO",
        "ref_id": "703122",
        "route_groups_on_station": ["18"]
    },
    {
        "int_id": 2240,
        "latitude": 46.066926310393285,
        "longitude": 14.495860097231628,
        "name": "Drenikova",
        "ref_id": "802052",
        "route_groups_on_station": ["22"]
    },
    {
        "int_id": 2307,
        "latitude": 46.06706801825135,
        "longitude": 14.496106177300867,
        "name": "Drenikova",
        "ref_id": "802051",
        "route_groups_on_station": ["22"]
    },
    {
        "int_id": 2187,
        "latitude": 46.04637368706385,
        "longitude": 14.469007219638339,
        "name": "Viško polje",
        "ref_id": "703042",
        "route_groups_on_station": ["14"]
    },
    {
        "int_id": 2025,
        "latitude": 46.03033040707446,
        "longitude": 14.531703902547477,
        "name": "Peruzzijeva",
        "ref_id": "503042",
        "route_groups_on_station": ["3"],
        "ijpp_id": "1167153"
    },
    {
        "int_id": 1969,
        "latitude": 46.0627306480412,
        "longitude": 14.524754324801435,
        "name": "Savsko naselje",
        "ref_id": "202042",
        "route_groups_on_station": ["2"],
        "ijpp_id": "1165674"
    },
    {
        "int_id": 2149,
        "latitude": 46.062639620654735,
        "longitude": 14.525022074090455,
        "name": "Središka",
        "ref_id": "202091",
        "route_groups_on_station": ["2", "7", "12", "22", "27"],
        "ijpp_id": "1167488"
    },
    {
        "int_id": 2161,
        "latitude": 46.048021660613614,
        "longitude": 14.537373749385686,
        "name": "Štepanja vas",
        "ref_id": "403041",
        "route_groups_on_station": ["13"]
    },
    {
        "int_id": 3324,
        "latitude": 46.02655857600485,
        "longitude": 14.527630399125655,
        "name": "Jurčkova",
        "ref_id": "504041",
        "route_groups_on_station": ["27"]
    },
    {
        "int_id": 1990,
        "latitude": 46.05553530663181,
        "longitude": 14.533977552280607,
        "name": "Tržnica Moste",
        "ref_id": "303012",
        "route_groups_on_station": ["2", "9", "11", "20", "25"],
        "ijpp_id": "1167309"
    },
    {
        "int_id": 2322,
        "latitude": 46.020018915585375,
        "longitude": 14.510540636397806,
        "name": "Iški most",
        "ref_id": "604011",
        "route_groups_on_station": ["19"],
        "ijpp_id": "1167229"
    },
    {
        "int_id": 1872,
        "latitude": 46.066616489834175,
        "longitude": 14.490035203256255,
        "name": "Na jami",
        "ref_id": "802031",
        "route_groups_on_station": ["7"]
    },
    {
        "int_id": 2321,
        "latitude": 46.01991424993348,
        "longitude": 14.510346570219813,
        "name": "Iški most",
        "ref_id": "604012",
        "route_groups_on_station": ["19"],
        "ijpp_id": "1167230"
    },
    {
        "int_id": 2314,
        "latitude": 46.06707137310089,
        "longitude": 14.514739106986502,
        "name": "Topniška",
        "ref_id": "102022",
        "route_groups_on_station": ["19"],
        "ijpp_id": "1167275"
    },
    {
        "int_id": 1873,
        "latitude": 46.06662121963626,
        "longitude": 14.48970957918712,
        "name": "Na jami",
        "ref_id": "802032",
        "route_groups_on_station": ["7"]
    },
    {
        "int_id": 2313,
        "latitude": 46.067154622254776,
        "longitude": 14.515007745947418,
        "name": "Topniška",
        "ref_id": "102021",
        "route_groups_on_station": ["19"],
        "ijpp_id": "1167274"
    },
    {
        "int_id": 2024,
        "latitude": 46.02992947058968,
        "longitude": 14.53261094399145,
        "name": "Peruzzijeva",
        "ref_id": "503041",
        "route_groups_on_station": ["3"],
        "ijpp_id": "1167154"
    },
    {
        "int_id": 2150,
        "latitude": 46.062982232963336,
        "longitude": 14.525992128110037,
        "name": "Središka",
        "ref_id": "202092",
        "route_groups_on_station": ["2", "7", "12", "22", "24", "27"],
        "ijpp_id": "1167471"
    },
    {
        "int_id": 1989,
        "latitude": 46.05582129835412,
        "longitude": 14.53453299062092,
        "name": "Tržnica Moste",
        "ref_id": "303011",
        "route_groups_on_station": ["2", "9", "11", "20", "25"],
        "ijpp_id": "1167308"
    },
    {
        "int_id": 2061,
        "latitude": 46.04842769268831,
        "longitude": 14.53853092793921,
        "name": "Štepanja vas",
        "ref_id": "403043",
        "route_groups_on_station": ["5", "9", "24"]
    },
    {
        "int_id": 2062,
        "latitude": 46.04794296332875,
        "longitude": 14.53908098979979,
        "name": "Štepanja vas",
        "ref_id": "403042",
        "route_groups_on_station": ["5", "9", "13", "24"]
    },
    {
        "int_id": 3325,
        "latitude": 46.02587920414095,
        "longitude": 14.528792850163494,
        "name": "Jurčkova",
        "ref_id": "504042",
        "route_groups_on_station": ["27"]
    },
    {
        "int_id": 2206,
        "latitude": 46.069250219790234,
        "longitude": 14.503558321621938,
        "name": "Podmilščakova",
        "ref_id": "102052",
        "route_groups_on_station": ["14"]
    },
    {
        "int_id": 1878,
        "latitude": 46.06577062655823,
        "longitude": 14.521659883003316,
        "name": "Savske stolpnice",
        "ref_id": "202031",
        "route_groups_on_station": ["7", "19", "22", "24"],
        "ijpp_id": "1167276"
    },
    {
        "int_id": 3103,
        "latitude": 46.0300681866742,
        "longitude": 14.472398360690704,
        "name": "MESTNI LOG",
        "ref_id": "604031",
        "route_groups_on_station": ["1"]
    },
    {
        "int_id": 4445,
        "latitude": 46.0306883051519,
        "longitude": 14.471709441676078,
        "name": "Mestni log",
        "ref_id": "604032",
        "route_groups_on_station": ["1"]
    },
    {
        "int_id": 2254,
        "latitude": 46.03729915487585,
        "longitude": 14.467279308861954,
        "name": "Dolgi most",
        "ref_id": "703111",
        "route_groups_on_station": [
            "6",
            "16",
            "45",
            "46",
            "47",
            "48",
            "49",
            "51",
            "54",
            "56"
        ],
        "ijpp_id": "1165631"
    },
    {
        "int_id": 2205,
        "latitude": 46.06981305536522,
        "longitude": 14.503500198954502,
        "name": "Podmilščakova",
        "ref_id": "102051",
        "route_groups_on_station": ["14"]
    },
    {
        "int_id": 2085,
        "latitude": 46.06934803362496,
        "longitude": 14.510169057515183,
        "name": "Stadion",
        "ref_id": "102041",
        "route_groups_on_station": ["6", "8", "11"],
        "ijpp_id": "1165677"
    },
    {
        "int_id": 2330,
        "latitude": 46.068150547632754,
        "longitude": 14.516545860781678,
        "name": "Gasilska brigada",
        "ref_id": "102032",
        "route_groups_on_station": ["13", "20"]
    },
    {
        "int_id": 2086,
        "latitude": 46.06942957686448,
        "longitude": 14.510454737754007,
        "name": "Stadion",
        "ref_id": "102042",
        "route_groups_on_station": ["6", "8", "11"],
        "ijpp_id": "1165676"
    },
    {
        "int_id": 1879,
        "latitude": 46.06592580736283,
        "longitude": 14.523151688978432,
        "name": "Savske stolpnice",
        "ref_id": "202032",
        "route_groups_on_station": ["7", "19"],
        "ijpp_id": "1167277"
    },
    {
        "int_id": 2060,
        "latitude": 46.0514727843489,
        "longitude": 14.539074760498583,
        "name": "Kodeljevo",
        "ref_id": "403022",
        "route_groups_on_station": ["5", "9", "24"]
    },
    {
        "int_id": 2107,
        "latitude": 46.052146004835876,
        "longitude": 14.539113936280524,
        "name": "Kodeljevo",
        "ref_id": "403021",
        "route_groups_on_station": ["9", "24"]
    },
    {
        "int_id": 2329,
        "latitude": 46.06850686378388,
        "longitude": 14.516694733292564,
        "name": "Gasilska brigada",
        "ref_id": "102031",
        "route_groups_on_station": ["13", "20"]
    },
    {
        "int_id": 2059,
        "latitude": 46.05156624945788,
        "longitude": 14.539460936381396,
        "name": "Kodeljevo",
        "ref_id": "403023",
        "route_groups_on_station": ["5"]
    },
    {
        "int_id": 1870,
        "latitude": 46.06744082317037,
        "longitude": 14.485904638958072,
        "name": "Bolnica P. Držaja",
        "ref_id": "802041",
        "route_groups_on_station": ["7"]
    },
    {
        "int_id": 1963,
        "latitude": 46.06356733604986,
        "longitude": 14.529311306024777,
        "name": "ZELENA JAMA",
        "ref_id": "202051",
        "route_groups_on_station": ["2"]
    },
    {
        "int_id": 1937,
        "latitude": 46.06922357792497,
        "longitude": 14.490256370879077,
        "name": "Kino Šiška",
        "ref_id": "802022",
        "route_groups_on_station": ["1", "3", "5", "8", "22", "25", "60"],
        "ijpp_id": "1165649"
    },
    {
        "int_id": 2186,
        "latitude": 46.04729758992993,
        "longitude": 14.464708790530132,
        "name": "Podmornica",
        "ref_id": "703051",
        "route_groups_on_station": ["14"]
    },
    {
        "int_id": 1871,
        "latitude": 46.06788235117046,
        "longitude": 14.4854811782943,
        "name": "Bolnica P. Držaja",
        "ref_id": "802042",
        "route_groups_on_station": ["7"]
    },
    {
        "int_id": 2185,
        "latitude": 46.04739599864405,
        "longitude": 14.464308457732542,
        "name": "Podmornica",
        "ref_id": "703052",
        "route_groups_on_station": ["14"]
    },
    {
        "int_id": 4460,
        "latitude": 46.03678135170651,
        "longitude": 14.465192140963854,
        "name": "Dolgi most",
        "ref_id": "703112",
        "route_groups_on_station": [
            "6",
            "16",
            "45",
            "46",
            "47",
            "48",
            "51",
            "54",
            "56"
        ],
        "ijpp_id": "1165632"
    },
    {
        "int_id": 3478,
        "latitude": 46.06454972375176,
        "longitude": 14.529110050210523,
        "name": "Flajšmanova",
        "ref_id": "202082",
        "route_groups_on_station": ["2", "7", "12", "22", "24", "27"],
        "ijpp_id": "1121505"
    },
    {
        "int_id": 1936,
        "latitude": 46.069672634930896,
        "longitude": 14.489462757378902,
        "name": "Kino Šiška",
        "ref_id": "802021",
        "route_groups_on_station": ["1", "3", "5", "8", "22", "25", "60"],
        "ijpp_id": "1165648"
    },
    {
        "int_id": 2106,
        "latitude": 46.05403353847386,
        "longitude": 14.539985176673232,
        "name": "Ob sotočju",
        "ref_id": "303032",
        "route_groups_on_station": ["9", "24"]
    },
    {
        "int_id": 4462,
        "latitude": 46.04166470665443,
        "longitude": 14.46360272582221,
        "name": "I. Kobilca",
        "ref_id": "703211",
        "route_groups_on_station": ["14"]
    },
    {
        "int_id": 2027,
        "latitude": 46.028002380283596,
        "longitude": 14.535614068528599,
        "name": "Gornji Rudnik",
        "ref_id": "504012",
        "route_groups_on_station": ["3"],
        "ijpp_id": "1167141"
    },
    {
        "int_id": 2026,
        "latitude": 46.02810821503795,
        "longitude": 14.535834768836576,
        "name": "Gornji Rudnik",
        "ref_id": "504011",
        "route_groups_on_station": ["3"],
        "ijpp_id": "1167142"
    },
    {
        "int_id": 4461,
        "latitude": 46.04136945070971,
        "longitude": 14.463233808477874,
        "name": "I. Kobilca",
        "ref_id": "703212",
        "route_groups_on_station": ["14"]
    },
    {
        "int_id": 3799,
        "latitude": 46.02436395160206,
        "longitude": 14.531842042487856,
        "name": "Bobrova",
        "ref_id": "504122",
        "route_groups_on_station": ["27"]
    },
    {
        "int_id": 1998,
        "latitude": 46.06349069748781,
        "longitude": 14.531979803803535,
        "name": "Rožičeva",
        "ref_id": "203021",
        "route_groups_on_station": ["2"]
    },
    {
        "int_id": 1965,
        "latitude": 46.06543819044026,
        "longitude": 14.529160889938133,
        "name": "Pokopališka",
        "ref_id": "203012",
        "route_groups_on_station": ["2", "7", "24"]
    },
    {
        "int_id": 1997,
        "latitude": 46.06341287923119,
        "longitude": 14.532358946095755,
        "name": "Rožičeva",
        "ref_id": "203022",
        "route_groups_on_station": ["2"]
    },
    {
        "int_id": 2099,
        "latitude": 46.036952090755946,
        "longitude": 14.463680046008538,
        "name": "D. MOST P+R",
        "ref_id": "704011",
        "route_groups_on_station": ["1", "6"]
    },
    {
        "int_id": 1991,
        "latitude": 46.05607475610472,
        "longitude": 14.539837608968991,
        "name": "Zaloška",
        "ref_id": "303021",
        "route_groups_on_station": ["2", "9", "11", "20", "25"],
        "ijpp_id": "1167310"
    },
    {
        "int_id": 1964,
        "latitude": 46.06547919959305,
        "longitude": 14.529408012844387,
        "name": "Pokopališka",
        "ref_id": "203011",
        "route_groups_on_station": ["2"]
    },
    {
        "int_id": 3798,
        "latitude": 46.02408037822856,
        "longitude": 14.532358741831853,
        "name": "Bobrova",
        "ref_id": "504121",
        "route_groups_on_station": ["27"]
    },
    {
        "int_id": 4463,
        "latitude": 46.044768456700865,
        "longitude": 14.462249768999243,
        "name": "Ježkova",
        "ref_id": "703202",
        "route_groups_on_station": ["14"]
    },
    {
        "int_id": 3367,
        "latitude": 46.046032328278756,
        "longitude": 14.543988438845089,
        "name": "Bilečanska",
        "ref_id": "403071",
        "route_groups_on_station": ["24"]
    },
    {
        "int_id": 4464,
        "latitude": 46.0453132636658,
        "longitude": 14.462172024450933,
        "name": "Ježkova",
        "ref_id": "703201",
        "route_groups_on_station": ["14"]
    },
    {
        "int_id": 3571,
        "latitude": 46.016033185833535,
        "longitude": 14.511757196750512,
        "name": "Barje",
        "ref_id": "604023",
        "route_groups_on_station": ["19"]
    },
    {
        "int_id": 1967,
        "latitude": 46.066879036371525,
        "longitude": 14.527576264894677,
        "name": "Žale",
        "ref_id": "202062",
        "route_groups_on_station": ["2", "7", "24"]
    },
    {
        "int_id": 1966,
        "latitude": 46.066996563711,
        "longitude": 14.527413355764159,
        "name": "Žale",
        "ref_id": "202061",
        "route_groups_on_station": ["2"]
    },
    {
        "int_id": 3372,
        "latitude": 46.045770584256154,
        "longitude": 14.544234572607893,
        "name": "Bilečanska",
        "ref_id": "403072",
        "route_groups_on_station": ["24"]
    },
    {
        "int_id": 4466,
        "latitude": 46.047159171279375,
        "longitude": 14.461755542098336,
        "name": "Pot Rdečega križa",
        "ref_id": "703191",
        "route_groups_on_station": ["14"]
    },
    {
        "int_id": 3570,
        "latitude": 46.0155650335018,
        "longitude": 14.511672480842407,
        "name": "Barje",
        "ref_id": "604022",
        "route_groups_on_station": ["19"],
        "ijpp_id": "1167388"
    },
    {
        "int_id": 1992,
        "latitude": 46.056480792297926,
        "longitude": 14.540823646325386,
        "name": "Kajuhova",
        "ref_id": "303022",
        "route_groups_on_station": ["2", "22", "24"]
    },
    {
        "int_id": 2063,
        "latitude": 46.047770262649145,
        "longitude": 14.544742413168477,
        "name": "Emona",
        "ref_id": "403051",
        "route_groups_on_station": ["5", "9", "13"]
    },
    {
        "int_id": 3515,
        "latitude": 46.03228478966416,
        "longitude": 14.464581602584984,
        "name": "Cesta v Gorice",
        "ref_id": "704151",
        "route_groups_on_station": ["1", "16"]
    },
    {
        "int_id": 4465,
        "latitude": 46.0468941710363,
        "longitude": 14.461292462604273,
        "name": "Pot Rdečega križa",
        "ref_id": "703192",
        "route_groups_on_station": ["14"]
    },
    {
        "int_id": 2306,
        "latitude": 46.07278131778543,
        "longitude": 14.495826643069645,
        "name": "Tiki",
        "ref_id": "802062",
        "route_groups_on_station": ["18"]
    },
    {
        "int_id": 2064,
        "latitude": 46.047598508830816,
        "longitude": 14.545067372638025,
        "name": "Emona",
        "ref_id": "403052",
        "route_groups_on_station": ["5", "9", "13"]
    },
    {
        "int_id": 3514,
        "latitude": 46.03234263511777,
        "longitude": 14.46422387185648,
        "name": "Cesta v Gorice",
        "ref_id": "704152",
        "route_groups_on_station": ["1", "16"]
    },
    {
        "int_id": 4593,
        "latitude": 46.035642808916805,
        "longitude": 14.462325378409975,
        "name": "Podvozna pot",
        "ref_id": "704181",
        "route_groups_on_station": ["6", "16"],
        "ijpp_id": "1167356"
    },
    {
        "int_id": 2305,
        "latitude": 46.07293166899967,
        "longitude": 14.495129225060635,
        "name": "Tiki",
        "ref_id": "802061",
        "route_groups_on_station": ["18"]
    },
    {
        "int_id": 2111,
        "latitude": 46.0558576919422,
        "longitude": 14.542429571011176,
        "name": "Zaloška",
        "ref_id": "303024",
        "route_groups_on_station": ["11", "20", "22", "25"],
        "ijpp_id": "1167311"
    },
    {
        "int_id": 2303,
        "latitude": 46.07362286865303,
        "longitude": 14.499305682404717,
        "name": "Mostovna",
        "ref_id": "102061",
        "route_groups_on_station": ["18"]
    },
    {
        "int_id": 3639,
        "latitude": 46.06922197885551,
        "longitude": 14.525890467566754,
        "name": "Kranjčeva",
        "ref_id": "203211",
        "route_groups_on_station": ["19", "24"]
    },
    {
        "int_id": 2327,
        "latitude": 46.071895312477054,
        "longitude": 14.519063188378402,
        "name": "Kardeljeva ploščad",
        "ref_id": "102091",
        "route_groups_on_station": ["13", "20"]
    },
    {
        "int_id": 4241,
        "latitude": 46.041713209634146,
        "longitude": 14.459835431960759,
        "name": "Cesta na Vrhovce",
        "ref_id": "703222",
        "route_groups_on_station": ["14"]
    },
    {
        "int_id": 1993,
        "latitude": 46.06033566723379,
        "longitude": 14.539636368260162,
        "name": "Tovorni kolodvor",
        "ref_id": "203062",
        "route_groups_on_station": ["2", "22", "24"]
    },
    {
        "int_id": 4365,
        "latitude": 46.0679765444074,
        "longitude": 14.476771118097696,
        "name": "Draga",
        "ref_id": "803222",
        "route_groups_on_station": ["18"]
    },
    {
        "int_id": 4242,
        "latitude": 46.041718726443264,
        "longitude": 14.459641552063847,
        "name": "Cesta na Vrhovce",
        "ref_id": "703221",
        "route_groups_on_station": ["14"]
    },
    {
        "int_id": 4364,
        "latitude": 46.06800610205603,
        "longitude": 14.4765727945721,
        "name": "Draga",
        "ref_id": "803221",
        "route_groups_on_station": ["18"]
    },
    {
        "int_id": 1996,
        "latitude": 46.06404992309158,
        "longitude": 14.53596021160106,
        "name": "Kavčičeva",
        "ref_id": "203051",
        "route_groups_on_station": ["2"]
    },
    {
        "int_id": 2304,
        "latitude": 46.07423734808117,
        "longitude": 14.499622425512332,
        "name": "Mostovna",
        "ref_id": "102062",
        "route_groups_on_station": ["18"]
    },
    {
        "int_id": 3516,
        "latitude": 46.03274674564996,
        "longitude": 14.462316188067422,
        "name": "Zgornji log",
        "ref_id": "704142",
        "route_groups_on_station": ["1", "16"]
    },
    {
        "int_id": 4598,
        "latitude": 46.03551035311733,
        "longitude": 14.460900025751602,
        "name": "Podvozna pot",
        "ref_id": "704182",
        "route_groups_on_station": ["6"],
        "ijpp_id": "1167355"
    },
    {
        "int_id": 3517,
        "latitude": 46.03278653338745,
        "longitude": 14.462170540011556,
        "name": "Zgornji log",
        "ref_id": "704141",
        "route_groups_on_station": ["1", "16"]
    },
    {
        "int_id": 1994,
        "latitude": 46.06163876773636,
        "longitude": 14.538948718518533,
        "name": "Tovorni kolodvor",
        "ref_id": "203061",
        "route_groups_on_station": ["2", "22"]
    },
    {
        "int_id": 2312,
        "latitude": 46.06925963310999,
        "longitude": 14.527693502669933,
        "name": "Tomačevska",
        "ref_id": "203032",
        "route_groups_on_station": ["19"],
        "ijpp_id": "1167389"
    },
    {
        "int_id": 1868,
        "latitude": 46.070111640313335,
        "longitude": 14.480242116388984,
        "name": "Zgornja Šiška",
        "ref_id": "803091",
        "route_groups_on_station": ["7"]
    },
    {
        "int_id": 1995,
        "latitude": 46.06401789680791,
        "longitude": 14.536491637730393,
        "name": "Kavčičeva",
        "ref_id": "203052",
        "route_groups_on_station": ["2"]
    },
    {
        "int_id": 2311,
        "latitude": 46.069483405598085,
        "longitude": 14.527669318490883,
        "name": "Tomačevska",
        "ref_id": "203031",
        "route_groups_on_station": ["19"]
    },
    {
        "int_id": 4684,
        "latitude": 46.02722515534071,
        "longitude": 14.465926806568582,
        "name": "Log",
        "ref_id": "603251",
        "route_groups_on_station": ["16"]
    },
    {
        "int_id": 4682,
        "latitude": 46.02740997996494,
        "longitude": 14.465740480973018,
        "name": "Log",
        "ref_id": "603252",
        "route_groups_on_station": ["16"]
    },
    {
        "int_id": 2083,
        "latitude": 46.07417596326369,
        "longitude": 14.511215830673782,
        "name": "Mercator",
        "ref_id": "102081",
        "route_groups_on_station": ["6", "8", "11"]
    },
    {
        "int_id": 1999,
        "latitude": 46.06668732686626,
        "longitude": 14.532967849984487,
        "name": "Šola Jarše",
        "ref_id": "203041",
        "route_groups_on_station": ["2", "7", "12", "22", "24", "27"],
        "ijpp_id": "1121512"
    },
    {
        "int_id": 2207,
        "latitude": 46.0746893249697,
        "longitude": 14.504490543883588,
        "name": "Vodovodna",
        "ref_id": "102071",
        "route_groups_on_station": ["14"]
    },
    {
        "int_id": 2328,
        "latitude": 46.072613592990656,
        "longitude": 14.519329603274315,
        "name": "Kardeljeva ploščad",
        "ref_id": "102092",
        "route_groups_on_station": ["13", "20"]
    },
    {
        "int_id": 2243,
        "latitude": 46.065030422859465,
        "longitude": 14.535752717908869,
        "name": "Šola Jarše",
        "ref_id": "203044",
        "route_groups_on_station": ["22"]
    },
    {
        "int_id": 4481,
        "latitude": 46.070722184703186,
        "longitude": 14.525866020282866,
        "name": "Kranjčeva",
        "ref_id": "203212",
        "route_groups_on_station": ["24"]
    },
    {
        "int_id": 2084,
        "latitude": 46.07458275447716,
        "longitude": 14.511622052601224,
        "name": "Mercator",
        "ref_id": "102082",
        "route_groups_on_station": ["6", "8", "11"]
    },
    {
        "int_id": 4764,
        "latitude": 46.04930003782995,
        "longitude": 14.54777465457724,
        "name": "Nusdorferjeva",
        "ref_id": "303081",
        "route_groups_on_station": ["5", "9"]
    },
    {
        "int_id": 2043,
        "latitude": 46.07125359526684,
        "longitude": 14.480690654409315,
        "name": "Kneza Koclja",
        "ref_id": "803081",
        "route_groups_on_station": ["5", "18", "22"]
    },
    {
        "int_id": 2208,
        "latitude": 46.07538939954873,
        "longitude": 14.505082095563719,
        "name": "Vodovodna",
        "ref_id": "102072",
        "route_groups_on_station": ["14", "18"]
    },
    {
        "int_id": 1934,
        "latitude": 46.07319708065566,
        "longitude": 14.486220460529562,
        "name": "Slovenija avto",
        "ref_id": "803011",
        "route_groups_on_station": ["1", "3", "5", "8", "22", "25", "60"]
    },
    {
        "int_id": 4762,
        "latitude": 46.04955144419521,
        "longitude": 14.547837574281827,
        "name": "Nusdorferjeva",
        "ref_id": "303082",
        "route_groups_on_station": ["5", "9"]
    },
    {
        "int_id": 3396,
        "latitude": 46.01247058266134,
        "longitude": 14.5075241169355,
        "name": "Plečnikova cerkev",
        "ref_id": "614011",
        "route_groups_on_station": ["19"]
    },
    {
        "int_id": 2042,
        "latitude": 46.07149005205264,
        "longitude": 14.48067232926082,
        "name": "Kneza Koclja",
        "ref_id": "803082",
        "route_groups_on_station": ["5", "18", "22"]
    },
    {
        "int_id": 3395,
        "latitude": 46.01221095734941,
        "longitude": 14.506647618499958,
        "name": "Plečnikova cerkev",
        "ref_id": "614012",
        "route_groups_on_station": ["19"]
    },
    {
        "int_id": 2301,
        "latitude": 46.075719185707676,
        "longitude": 14.499966347026557,
        "name": "Toplarna",
        "ref_id": "103011",
        "route_groups_on_station": ["18"]
    },
    {
        "int_id": 2000,
        "latitude": 46.067259783489675,
        "longitude": 14.534704747717445,
        "name": "Šola Jarše",
        "ref_id": "203042",
        "route_groups_on_station": ["2", "7", "12", "24", "27"],
        "ijpp_id": "1121513"
    },
    {
        "int_id": 2011,
        "latitude": 46.07391176821104,
        "longitude": 14.486595534450306,
        "name": "Slovenija avto",
        "ref_id": "803012",
        "route_groups_on_station": ["3", "8", "18"],
        "ijpp_id": "1165669"
    },
    {
        "int_id": 1869,
        "latitude": 46.07111691412364,
        "longitude": 14.478365146398932,
        "name": "Zgornja Šiška",
        "ref_id": "803092",
        "route_groups_on_station": ["7"]
    },
    {
        "int_id": 3326,
        "latitude": 46.020246380841705,
        "longitude": 14.53481150187635,
        "name": "NS Rudnik",
        "ref_id": "504052",
        "route_groups_on_station": ["27"]
    },
    {
        "int_id": 2044,
        "latitude": 46.07373991303999,
        "longitude": 14.485093921007943,
        "name": "Šišenska",
        "ref_id": "803016",
        "route_groups_on_station": ["5", "18", "22"]
    },
    {
        "int_id": 3327,
        "latitude": 46.02025500840928,
        "longitude": 14.535108416892227,
        "name": "NS Rudnik",
        "ref_id": "504051",
        "route_groups_on_station": ["27"]
    },
    {
        "int_id": 2302,
        "latitude": 46.07632324647639,
        "longitude": 14.500287789024767,
        "name": "Toplarna",
        "ref_id": "103012",
        "route_groups_on_station": ["18"]
    },
    {
        "int_id": 2028,
        "latitude": 46.02383857200864,
        "longitude": 14.540037881418083,
        "name": "Spodnji Rudnik",
        "ref_id": "504021",
        "route_groups_on_station": ["3", "68", "69", "76", "78", "82"],
        "ijpp_id": "1165672"
    },
    {
        "int_id": 2065,
        "latitude": 46.053835216185185,
        "longitude": 14.547819367238972,
        "name": "ŠTEPANJSKO NAS.",
        "ref_id": "303041",
        "route_groups_on_station": ["5"]
    },
    {
        "int_id": 1935,
        "latitude": 46.07420732673931,
        "longitude": 14.485510885998004,
        "name": "Remiza",
        "ref_id": "803014",
        "route_groups_on_station": ["1", "25", "60"]
    },
    {
        "int_id": 2108,
        "latitude": 46.05350691802458,
        "longitude": 14.548228174641642,
        "name": "ŠTEPANJSKO NAS.",
        "ref_id": "303043",
        "route_groups_on_station": ["9"]
    },
    {
        "int_id": 2209,
        "latitude": 46.0767543116052,
        "longitude": 14.50550581891603,
        "name": "Brinje",
        "ref_id": "103021",
        "route_groups_on_station": ["14", "18"]
    },
    {
        "int_id": 2040,
        "latitude": 46.0696429716875,
        "longitude": 14.473516242931272,
        "name": "Bratov Učakar",
        "ref_id": "803132",
        "route_groups_on_station": ["5", "22"]
    },
    {
        "int_id": 4243,
        "latitude": 46.04410028913705,
        "longitude": 14.455626906987384,
        "name": "Vrhovci",
        "ref_id": "704032",
        "route_groups_on_station": ["14"]
    },
    {
        "int_id": 2041,
        "latitude": 46.06969103755405,
        "longitude": 14.473122418113464,
        "name": "Bratov Učakar",
        "ref_id": "803131",
        "route_groups_on_station": ["5", "22"]
    },
    {
        "int_id": 2180,
        "latitude": 46.04403276798671,
        "longitude": 14.455329344107101,
        "name": "Vrhovci",
        "ref_id": "704031",
        "route_groups_on_station": ["14"]
    },
    {
        "int_id": 2029,
        "latitude": 46.02293446187511,
        "longitude": 14.540343188201916,
        "name": "Spodnji Rudnik",
        "ref_id": "504022",
        "route_groups_on_station": ["3", "68", "69", "76", "78", "82"]
    },
    {
        "int_id": 4236,
        "latitude": 46.07167395145397,
        "longitude": 14.529620147321841,
        "name": "Na Žalah",
        "ref_id": "203232",
        "route_groups_on_station": ["19"],
        "ijpp_id": "1167283"
    },
    {
        "int_id": 4372,
        "latitude": 46.0762925283214,
        "longitude": 14.515506600774962,
        "name": "Baragova",
        "ref_id": "103211",
        "route_groups_on_station": ["18"]
    },
    {
        "int_id": 4373,
        "latitude": 46.07604785376694,
        "longitude": 14.517006858306754,
        "name": "Baragova",
        "ref_id": "103212",
        "route_groups_on_station": ["18"]
    },
    {
        "int_id": 4235,
        "latitude": 46.07208624169931,
        "longitude": 14.529727825936867,
        "name": "Na Žalah",
        "ref_id": "203231",
        "route_groups_on_station": ["19"],
        "ijpp_id": "1167282"
    },
    {
        "int_id": 2162,
        "latitude": 46.04697992951527,
        "longitude": 14.551456956572984,
        "name": "Rast",
        "ref_id": "403061",
        "route_groups_on_station": ["13"]
    },
    {
        "int_id": 2001,
        "latitude": 46.068441176171135,
        "longitude": 14.536694067327979,
        "name": "Jarše",
        "ref_id": "203091",
        "route_groups_on_station": ["2", "7", "12", "24", "27"],
        "ijpp_id": "1121522"
    },
    {
        "int_id": 2163,
        "latitude": 46.0467942160046,
        "longitude": 14.551751469871746,
        "name": "Rast",
        "ref_id": "403062",
        "route_groups_on_station": ["13"]
    },
    {
        "int_id": 3397,
        "latitude": 46.01004190440209,
        "longitude": 14.501586572375906,
        "name": "Brglezov štradon",
        "ref_id": "614021",
        "route_groups_on_station": ["19"]
    },
    {
        "int_id": 3328,
        "latitude": 46.01835161509226,
        "longitude": 14.535335199386521,
        "name": "NS RUDNIK",
        "ref_id": "504061",
        "route_groups_on_station": ["27"]
    },
    {
        "int_id": 3527,
        "latitude": 46.07557134181195,
        "longitude": 14.520940739441976,
        "name": "Božičeva",
        "ref_id": "103192",
        "route_groups_on_station": ["13", "18"]
    },
    {
        "int_id": 2082,
        "latitude": 46.07736360665761,
        "longitude": 14.512249341355954,
        "name": "AMZS",
        "ref_id": "103032",
        "route_groups_on_station": ["6", "8", "11", "18"],
        "ijpp_id": "1165626"
    },
    {
        "int_id": 3525,
        "latitude": 46.07455659303572,
        "longitude": 14.524524508399379,
        "name": "Štajerska",
        "ref_id": "103181",
        "route_groups_on_station": ["24"]
    },
    {
        "int_id": 2249,
        "latitude": 46.06177302815847,
        "longitude": 14.544939333463509,
        "name": "BTC-Emporium",
        "ref_id": "203142",
        "route_groups_on_station": ["24", "27"]
    },
    {
        "int_id": 3526,
        "latitude": 46.07572326865177,
        "longitude": 14.520836812905955,
        "name": "Božičeva",
        "ref_id": "103191",
        "route_groups_on_station": ["13", "18"]
    },
    {
        "int_id": 2210,
        "latitude": 46.07797150056564,
        "longitude": 14.50626734741082,
        "name": "Brinje",
        "ref_id": "103022",
        "route_groups_on_station": ["14", "18"]
    },
    {
        "int_id": 2250,
        "latitude": 46.062088961210804,
        "longitude": 14.544990651021507,
        "name": "BTC-Emporium",
        "ref_id": "203141",
        "route_groups_on_station": ["24", "27"]
    },
    {
        "int_id": 1907,
        "latitude": 46.0767597782595,
        "longitude": 14.488915875840256,
        "name": "Litostrojska",
        "ref_id": "803052",
        "route_groups_on_station": ["3", "8", "18"],
        "ijpp_id": "1167151"
    },
    {
        "int_id": 2081,
        "latitude": 46.07765683291845,
        "longitude": 14.512012675069688,
        "name": "AMZS",
        "ref_id": "103031",
        "route_groups_on_station": ["6", "8", "11", "18"],
        "ijpp_id": "1165625"
    },
    {
        "int_id": 3398,
        "latitude": 46.00957805242022,
        "longitude": 14.500180780635064,
        "name": "Brglezov štradon",
        "ref_id": "614022",
        "route_groups_on_station": ["19"]
    },
    {
        "int_id": 4468,
        "latitude": 46.04749683415727,
        "longitude": 14.453823263893025,
        "name": "Brdo",
        "ref_id": "704026",
        "route_groups_on_station": ["14"]
    },
    {
        "int_id": 1906,
        "latitude": 46.07681205616524,
        "longitude": 14.488618049472198,
        "name": "Litostrojska",
        "ref_id": "803051",
        "route_groups_on_station": ["3", "8", "18"],
        "ijpp_id": "1167150"
    },
    {
        "int_id": 2325,
        "latitude": 46.07645481144415,
        "longitude": 14.51948335839058,
        "name": "Puhova",
        "ref_id": "103041",
        "route_groups_on_station": ["20"]
    },
    {
        "int_id": 4467,
        "latitude": 46.04748829852003,
        "longitude": 14.453619655357436,
        "name": "Brdo",
        "ref_id": "704023",
        "route_groups_on_station": ["14"]
    },
    {
        "int_id": 2112,
        "latitude": 46.056242803002164,
        "longitude": 14.549651336283368,
        "name": "Pot na Fužine",
        "ref_id": "303051",
        "route_groups_on_station": ["11", "20", "22", "25"],
        "ijpp_id": "1167316"
    },
    {
        "int_id": 2247,
        "latitude": 46.06413797657289,
        "longitude": 14.543550840915834,
        "name": "BTC-tržnica",
        "ref_id": "203122",
        "route_groups_on_station": ["27"]
    },
    {
        "int_id": 2248,
        "latitude": 46.064261106541174,
        "longitude": 14.543612868241617,
        "name": "BTC-tržnica",
        "ref_id": "203121",
        "route_groups_on_station": ["27"]
    },
    {
        "int_id": 4368,
        "latitude": 46.0786088409031,
        "longitude": 14.497428220072008,
        "name": "I.C. Šiška",
        "ref_id": "103232",
        "route_groups_on_station": ["18"]
    },
    {
        "int_id": 2002,
        "latitude": 46.06872689379598,
        "longitude": 14.538575670175533,
        "name": "Jarše",
        "ref_id": "203092",
        "route_groups_on_station": ["2", "7", "12", "24", "27"],
        "ijpp_id": "1121523"
    },
    {
        "int_id": 2326,
        "latitude": 46.077115476365876,
        "longitude": 14.519713768920845,
        "name": "Puhova",
        "ref_id": "103042",
        "route_groups_on_station": ["20"]
    },
    {
        "int_id": 2245,
        "latitude": 46.06681991588984,
        "longitude": 14.541901156420522,
        "name": "Kristalna palača",
        "ref_id": "203112",
        "route_groups_on_station": ["27"]
    },
    {
        "int_id": 4366,
        "latitude": 46.07775122353005,
        "longitude": 14.488312965972455,
        "name": "LITOSTROJSKA",
        "ref_id": "803053",
        "route_groups_on_station": ["18"]
    },
    {
        "int_id": 2300,
        "latitude": 46.07930178096932,
        "longitude": 14.501104667673847,
        "name": "Tovarna Lek",
        "ref_id": "103051",
        "route_groups_on_station": ["18"]
    },
    {
        "int_id": 3400,
        "latitude": 46.00859142718816,
        "longitude": 14.498006191928212,
        "name": "Dornig",
        "ref_id": "614031",
        "route_groups_on_station": ["19"]
    },
    {
        "int_id": 2130,
        "latitude": 46.0560115978184,
        "longitude": 14.551224432884442,
        "name": "Pot na Fužine",
        "ref_id": "303052",
        "route_groups_on_station": ["11"]
    },
    {
        "int_id": 2246,
        "latitude": 46.06695613439953,
        "longitude": 14.542055664184836,
        "name": "Kristalna palača",
        "ref_id": "203111",
        "route_groups_on_station": ["27"]
    },
    {
        "int_id": 1866,
        "latitude": 46.07400741931443,
        "longitude": 14.475858598692518,
        "name": "Tržnica Koseze",
        "ref_id": "803101",
        "route_groups_on_station": ["7"]
    },
    {
        "int_id": 3378,
        "latitude": 46.03403746070517,
        "longitude": 14.453875501378324,
        "name": "Dolgi most Rotar",
        "ref_id": "704051",
        "route_groups_on_station": [
            "6",
            "45",
            "46",
            "47",
            "48",
            "49",
            "51",
            "54",
            "56"
        ],
        "ijpp_id": "1167099"
    },
    {
        "int_id": 4367,
        "latitude": 46.079319465592,
        "longitude": 14.498085837058643,
        "name": "I.C. Šiška",
        "ref_id": "103231",
        "route_groups_on_station": ["18"]
    },
    {
        "int_id": 4369,
        "latitude": 46.07966080667349,
        "longitude": 14.501429837768725,
        "name": "Tovarna Lek",
        "ref_id": "103052",
        "route_groups_on_station": ["18"]
    },
    {
        "int_id": 3523,
        "latitude": 46.076300608352646,
        "longitude": 14.525114150949092,
        "name": "Štajerska",
        "ref_id": "103182",
        "route_groups_on_station": ["13", "18", "24"]
    },
    {
        "int_id": 2003,
        "latitude": 46.0691840999262,
        "longitude": 14.539748459756943,
        "name": "Kodrova",
        "ref_id": "203101",
        "route_groups_on_station": ["2", "7", "12", "24", "27"],
        "ijpp_id": "1165650"
    },
    {
        "int_id": 1867,
        "latitude": 46.07438475031148,
        "longitude": 14.47581234985529,
        "name": "Tržnica Koseze",
        "ref_id": "803102",
        "route_groups_on_station": ["7"]
    },
    {
        "int_id": 1932,
        "latitude": 46.07685492465361,
        "longitude": 14.482357943059274,
        "name": "Aleja",
        "ref_id": "803021",
        "route_groups_on_station": ["1", "25"],
        "ijpp_id": "1167341"
    },
    {
        "int_id": 3399,
        "latitude": 46.00813898445166,
        "longitude": 14.496644394998995,
        "name": "Dornig",
        "ref_id": "614032",
        "route_groups_on_station": ["19"]
    },
    {
        "int_id": 4683,
        "latitude": 46.0202393826723,
        "longitude": 14.463605553224806,
        "name": "ČRNI LOG",
        "ref_id": "603261",
        "route_groups_on_station": ["16"]
    },
    {
        "int_id": 4450,
        "latitude": 46.06352298500416,
        "longitude": 14.54704180072821,
        "name": "BTC-Merkur",
        "ref_id": "203241",
        "route_groups_on_station": ["24"]
    },
    {
        "int_id": 2113,
        "latitude": 46.05440291416905,
        "longitude": 14.553213610571149,
        "name": "Brodarjev trg",
        "ref_id": "303071",
        "route_groups_on_station": ["20", "22", "25"]
    },
    {
        "int_id": 2114,
        "latitude": 46.05425451578691,
        "longitude": 14.553327869203812,
        "name": "Brodarjev trg",
        "ref_id": "303072",
        "route_groups_on_station": ["20", "22", "25"],
        "ijpp_id": "1167313"
    },
    {
        "int_id": 1933,
        "latitude": 46.07730723785056,
        "longitude": 14.482366064346174,
        "name": "Aleja",
        "ref_id": "803022",
        "route_groups_on_station": ["1", "25"],
        "ijpp_id": "1167340"
    },
    {
        "int_id": 2309,
        "latitude": 46.074605891129565,
        "longitude": 14.531805145120883,
        "name": "Nove Žale",
        "ref_id": "203071",
        "route_groups_on_station": ["19"],
        "ijpp_id": "1167284"
    },
    {
        "int_id": 3373,
        "latitude": 46.04129600763775,
        "longitude": 14.55571761176937,
        "name": "Krožna pot",
        "ref_id": "404102",
        "route_groups_on_station": ["24"]
    },
    {
        "int_id": 2310,
        "latitude": 46.07452651327705,
        "longitude": 14.532016992912961,
        "name": "Nove Žale",
        "ref_id": "203072",
        "route_groups_on_station": ["19"],
        "ijpp_id": "1167285"
    },
    {
        "int_id": 2004,
        "latitude": 46.069188852808324,
        "longitude": 14.541570544982761,
        "name": "Kodrova",
        "ref_id": "203102",
        "route_groups_on_station": ["2", "7", "12", "24"],
        "ijpp_id": "1165651"
    },
    {
        "int_id": 4451,
        "latitude": 46.063812390867284,
        "longitude": 14.547685805074263,
        "name": "BTC-Merkur",
        "ref_id": "203242",
        "route_groups_on_station": ["24"]
    },
    {
        "int_id": 3362,
        "latitude": 46.041224012488975,
        "longitude": 14.55597344502107,
        "name": "Krožna pot",
        "ref_id": "404101",
        "route_groups_on_station": ["24"]
    },
    {
        "int_id": 3352,
        "latitude": 46.03365161563964,
        "longitude": 14.452145910168529,
        "name": "Dolgi most Rotar",
        "ref_id": "704052",
        "route_groups_on_station": [
            "6",
            "45",
            "46",
            "47",
            "48",
            "51",
            "54",
            "56"
        ]
    },
    {
        "int_id": 4452,
        "latitude": 46.06345838123261,
        "longitude": 14.548297382276019,
        "name": "BTC-ATLANTIS",
        "ref_id": "203251",
        "route_groups_on_station": ["24"]
    },
    {
        "int_id": 3520,
        "latitude": 46.07915579790067,
        "longitude": 14.519899187614179,
        "name": "Maroltova",
        "ref_id": "103162",
        "route_groups_on_station": ["20"]
    },
    {
        "int_id": 3562,
        "latitude": 46.00760652354785,
        "longitude": 14.51439480951738,
        "name": "Pri Maranzu",
        "ref_id": "604051",
        "route_groups_on_station": ["19"],
        "ijpp_id": "1167227"
    },
    {
        "int_id": 2298,
        "latitude": 46.061869485369414,
        "longitude": 14.550272657016784,
        "name": "Yulon",
        "ref_id": "203192",
        "route_groups_on_station": ["7", "27"]
    },
    {
        "int_id": 2297,
        "latitude": 46.06248637353353,
        "longitude": 14.549801800378152,
        "name": "Yulon",
        "ref_id": "203191",
        "route_groups_on_station": ["7"]
    },
    {
        "int_id": 3642,
        "latitude": 46.08040754346807,
        "longitude": 14.491416507632554,
        "name": "Kovinarska",
        "ref_id": "803211",
        "route_groups_on_station": ["3", "18"]
    },
    {
        "int_id": 2038,
        "latitude": 46.07222040867654,
        "longitude": 14.467560625599965,
        "name": "Koseze",
        "ref_id": "803142",
        "route_groups_on_station": ["5", "22"]
    },
    {
        "int_id": 2039,
        "latitude": 46.072160118276216,
        "longitude": 14.467331287813263,
        "name": "Koseze",
        "ref_id": "803141",
        "route_groups_on_station": ["5", "22"]
    },
    {
        "int_id": 1904,
        "latitude": 46.07989007253575,
        "longitude": 14.486788425700588,
        "name": "Ljubljanske brigade",
        "ref_id": "803061",
        "route_groups_on_station": ["8"]
    },
    {
        "int_id": 3521,
        "latitude": 46.07985745169974,
        "longitude": 14.519703948168797,
        "name": "Maroltova",
        "ref_id": "103161",
        "route_groups_on_station": ["20"]
    },
    {
        "int_id": 3641,
        "latitude": 46.08087533370335,
        "longitude": 14.492028291045678,
        "name": "Kovinarska",
        "ref_id": "803212",
        "route_groups_on_station": ["3", "18"],
        "ijpp_id": "1167144"
    },
    {
        "int_id": 3507,
        "latitude": 46.01845216424884,
        "longitude": 14.543305521551257,
        "name": "Rudnik",
        "ref_id": "504033",
        "route_groups_on_station": ["3"]
    },
    {
        "int_id": 3561,
        "latitude": 46.00678767957266,
        "longitude": 14.514534186910463,
        "name": "Pri Maranzu",
        "ref_id": "604052",
        "route_groups_on_station": ["19"],
        "ijpp_id": "1167228"
    },
    {
        "int_id": 2212,
        "latitude": 46.0819137725215,
        "longitude": 14.507373952144524,
        "name": "Pohorskega bataljona",
        "ref_id": "103062",
        "route_groups_on_station": ["14", "18"]
    },
    {
        "int_id": 2131,
        "latitude": 46.0562640987001,
        "longitude": 14.5552817191351,
        "name": "Archinetova",
        "ref_id": "303061",
        "route_groups_on_station": ["11"]
    },
    {
        "int_id": 3508,
        "latitude": 46.01752326778641,
        "longitude": 14.543324533707839,
        "name": "Rudnik",
        "ref_id": "504032",
        "route_groups_on_station": ["3"]
    },
    {
        "int_id": 2030,
        "latitude": 46.01799272847576,
        "longitude": 14.544023451560632,
        "name": "RUDNIK",
        "ref_id": "504031",
        "route_groups_on_station": ["3"]
    },
    {
        "int_id": 2211,
        "latitude": 46.08224055570051,
        "longitude": 14.507272972279083,
        "name": "Pohorskega bataljona",
        "ref_id": "103061",
        "route_groups_on_station": ["14", "18"]
    },
    {
        "int_id": 2009,
        "latitude": 46.082206253889694,
        "longitude": 14.496925295140894,
        "name": "Litostroj",
        "ref_id": "103202",
        "route_groups_on_station": ["18"]
    },
    {
        "int_id": 2080,
        "latitude": 46.081988409248424,
        "longitude": 14.513309218193669,
        "name": "Smelt",
        "ref_id": "103072",
        "route_groups_on_station": ["6", "8", "11", "18"]
    },
    {
        "int_id": 4375,
        "latitude": 46.08237971525845,
        "longitude": 14.49644774486002,
        "name": "Litostroj",
        "ref_id": "103203",
        "route_groups_on_station": ["18"]
    },
    {
        "int_id": 3401,
        "latitude": 46.005996252853436,
        "longitude": 14.491248092149483,
        "name": "Capuder",
        "ref_id": "614041",
        "route_groups_on_station": ["19"]
    },
    {
        "int_id": 3640,
        "latitude": 46.0824834450911,
        "longitude": 14.497162258937326,
        "name": "LITOSTROJ",
        "ref_id": "103201",
        "route_groups_on_station": ["3", "18"],
        "ijpp_id": "1167147"
    },
    {
        "int_id": 2005,
        "latitude": 46.06990084322027,
        "longitude": 14.545038907167656,
        "name": "Žito",
        "ref_id": "203151",
        "route_groups_on_station": ["2", "7", "12", "24"],
        "ijpp_id": "1167400"
    },
    {
        "int_id": 3331,
        "latitude": 46.0520526416731,
        "longitude": 14.448148909939905,
        "name": "BOKALCE",
        "ref_id": "704041",
        "route_groups_on_station": ["14"]
    },
    {
        "int_id": 2164,
        "latitude": 46.04552077289621,
        "longitude": 14.55945479031672,
        "name": "Hrušica",
        "ref_id": "404011",
        "route_groups_on_station": ["13"]
    },
    {
        "int_id": 2079,
        "latitude": 46.08247902591515,
        "longitude": 14.513067864628596,
        "name": "Smelt",
        "ref_id": "103071",
        "route_groups_on_station": ["6", "8", "11", "18"]
    },
    {
        "int_id": 2132,
        "latitude": 46.056036110371835,
        "longitude": 14.556875788752874,
        "name": "Archinetova",
        "ref_id": "303062",
        "route_groups_on_station": ["11"]
    },
    {
        "int_id": 1930,
        "latitude": 46.07994380182011,
        "longitude": 14.480160249455926,
        "name": "Kompas",
        "ref_id": "803031",
        "route_groups_on_station": ["1", "25"],
        "ijpp_id": "1167297"
    },
    {
        "int_id": 3524,
        "latitude": 46.08044142663494,
        "longitude": 14.52435971982523,
        "name": "C. STOŽICE P+R",
        "ref_id": "103173",
        "route_groups_on_station": ["13", "18", "24"]
    },
    {
        "int_id": 1881,
        "latitude": 46.06522300905034,
        "longitude": 14.550884288962937,
        "name": "Bratislavska",
        "ref_id": "203182",
        "route_groups_on_station": ["7"]
    },
    {
        "int_id": 3402,
        "latitude": 46.005497740072656,
        "longitude": 14.48956374726739,
        "name": "Capuder",
        "ref_id": "614042",
        "route_groups_on_station": ["19"]
    },
    {
        "int_id": 1931,
        "latitude": 46.0802337809771,
        "longitude": 14.480376422622612,
        "name": "Kompas",
        "ref_id": "803032",
        "route_groups_on_station": ["1", "25"],
        "ijpp_id": "1167298"
    },
    {
        "int_id": 1905,
        "latitude": 46.0815441774787,
        "longitude": 14.485270730061302,
        "name": "Ljubljanske brigade",
        "ref_id": "803062",
        "route_groups_on_station": ["8"]
    },
    {
        "int_id": 2165,
        "latitude": 46.045238141071216,
        "longitude": 14.560274955295892,
        "name": "Hrušica",
        "ref_id": "404012",
        "route_groups_on_station": ["13"]
    },
    {
        "int_id": 2324,
        "latitude": 46.08192233362285,
        "longitude": 14.519762337861149,
        "name": "N. STOŽICE P+R",
        "ref_id": "103081",
        "route_groups_on_station": ["20"]
    },
    {
        "int_id": 2116,
        "latitude": 46.054550289716786,
        "longitude": 14.558475498916497,
        "name": "Preglov trg",
        "ref_id": "304012",
        "route_groups_on_station": ["20", "22", "25"],
        "ijpp_id": "1167315"
    },
    {
        "int_id": 2006,
        "latitude": 46.06988053580321,
        "longitude": 14.546728328766957,
        "name": "Žito",
        "ref_id": "203152",
        "route_groups_on_station": ["2", "7", "12", "24"],
        "ijpp_id": "1167401"
    },
    {
        "int_id": 3801,
        "latitude": 46.00479754260627,
        "longitude": 14.51531095165669,
        "name": "Ižica",
        "ref_id": "604061",
        "route_groups_on_station": ["19"]
    },
    {
        "int_id": 1880,
        "latitude": 46.066136148306626,
        "longitude": 14.551472114295912,
        "name": "Bratislavska",
        "ref_id": "203181",
        "route_groups_on_station": ["7"]
    },
    {
        "int_id": 2115,
        "latitude": 46.05470946616187,
        "longitude": 14.55911427919455,
        "name": "Preglov trg",
        "ref_id": "304011",
        "route_groups_on_station": ["20", "22", "25"],
        "ijpp_id": "1167314"
    },
    {
        "int_id": 3416,
        "latitude": 46.032074724136365,
        "longitude": 14.44711026869543,
        "name": "Kozarje",
        "ref_id": "704102",
        "route_groups_on_station": ["6"],
        "ijpp_id": "1167205"
    },
    {
        "int_id": 3802,
        "latitude": 46.00401718946149,
        "longitude": 14.51543047560396,
        "name": "Ižica",
        "ref_id": "604062",
        "route_groups_on_station": ["19"]
    },
    {
        "int_id": 2237,
        "latitude": 46.07691451776956,
        "longitude": 14.467460711557852,
        "name": "Spar",
        "ref_id": "803172",
        "route_groups_on_station": ["22"]
    },
    {
        "int_id": 2213,
        "latitude": 46.08506371838169,
        "longitude": 14.507559767587866,
        "name": "Gorjančeva",
        "ref_id": "103091",
        "route_groups_on_station": ["14", "18"]
    },
    {
        "int_id": 2236,
        "latitude": 46.076795992705215,
        "longitude": 14.466883697404434,
        "name": "Spar",
        "ref_id": "803171",
        "route_groups_on_station": ["22"]
    },
    {
        "int_id": 2239,
        "latitude": 46.07466941360019,
        "longitude": 14.463195761312782,
        "name": "Bratov Babnik",
        "ref_id": "803162",
        "route_groups_on_station": ["22"]
    },
    {
        "int_id": 3471,
        "latitude": 46.070414632374494,
        "longitude": 14.548994372413928,
        "name": "Nove Jarše",
        "ref_id": "203161",
        "route_groups_on_station": ["2", "7", "12", "24"],
        "ijpp_id": "1121536"
    },
    {
        "int_id": 1882,
        "latitude": 46.06212220809475,
        "longitude": 14.556759174904329,
        "name": "Leskoškova",
        "ref_id": "204011",
        "route_groups_on_station": ["7", "27"]
    },
    {
        "int_id": 1864,
        "latitude": 46.07905338146486,
        "longitude": 14.471246135426199,
        "name": "Čebelarska",
        "ref_id": "803111",
        "route_groups_on_station": ["7"]
    },
    {
        "int_id": 2238,
        "latitude": 46.074636956491695,
        "longitude": 14.462795642773287,
        "name": "Bratov Babnik",
        "ref_id": "803161",
        "route_groups_on_station": ["22"]
    },
    {
        "int_id": 4583,
        "latitude": 46.004047112868484,
        "longitude": 14.485861227777946,
        "name": "Zidarjevec 2",
        "ref_id": "614101",
        "route_groups_on_station": ["19"]
    },
    {
        "int_id": 2008,
        "latitude": 46.069396680877624,
        "longitude": 14.550605276927225,
        "name": "NOVE JARŠE",
        "ref_id": "203171",
        "route_groups_on_station": ["2"]
    },
    {
        "int_id": 3417,
        "latitude": 46.031453120941045,
        "longitude": 14.445826200574766,
        "name": "Kozarje",
        "ref_id": "704101",
        "route_groups_on_station": ["6"],
        "ijpp_id": "1167206"
    },
    {
        "int_id": 1865,
        "latitude": 46.079275664032366,
        "longitude": 14.471298915684589,
        "name": "Čebelarska",
        "ref_id": "803112",
        "route_groups_on_station": ["7"]
    },
    {
        "int_id": 2037,
        "latitude": 46.073817821507866,
        "longitude": 14.46122878187968,
        "name": "Draveljska gmajna",
        "ref_id": "803151",
        "route_groups_on_station": ["5"]
    },
    {
        "int_id": 3954,
        "latitude": 46.04507618350817,
        "longitude": 14.443014886726662,
        "name": "Kozarje gmajna",
        "ref_id": "714022",
        "route_groups_on_station": ["51"]
    },
    {
        "int_id": 2133,
        "latitude": 46.056145386204506,
        "longitude": 14.560691650271487,
        "name": "Osenjakova",
        "ref_id": "304021",
        "route_groups_on_station": ["11"]
    },
    {
        "int_id": 2036,
        "latitude": 46.07397578782793,
        "longitude": 14.461309928854817,
        "name": "Draveljska gmajna",
        "ref_id": "803152",
        "route_groups_on_station": ["5"]
    },
    {
        "int_id": 3953,
        "latitude": 46.0450446055724,
        "longitude": 14.442885291065345,
        "name": "Kozarje gmajna",
        "ref_id": "714021",
        "route_groups_on_station": ["51"]
    },
    {
        "int_id": 4584,
        "latitude": 46.00373727219131,
        "longitude": 14.484721382287237,
        "name": "Zidarjevec 2",
        "ref_id": "614102",
        "route_groups_on_station": ["19"]
    },
    {
        "int_id": 2214,
        "latitude": 46.08608378429021,
        "longitude": 14.507828590032915,
        "name": "Gorjančeva",
        "ref_id": "103092",
        "route_groups_on_station": ["14", "18"]
    },
    {
        "int_id": 3952,
        "latitude": 46.036774522660465,
        "longitude": 14.442957848948176,
        "name": "Kozarje GD",
        "ref_id": "714012",
        "route_groups_on_station": ["51"],
        "ijpp_id": "1126956"
    },
    {
        "int_id": 3951,
        "latitude": 46.03704867885602,
        "longitude": 14.442791029651481,
        "name": "Kozarje GD",
        "ref_id": "714011",
        "route_groups_on_station": ["51"]
    },
    {
        "int_id": 2308,
        "latitude": 46.07948397012336,
        "longitude": 14.536585485505842,
        "name": "TOMAČEVO",
        "ref_id": "203081",
        "route_groups_on_station": ["19"],
        "ijpp_id": "1167286"
    },
    {
        "int_id": 1883,
        "latitude": 46.0618956456899,
        "longitude": 14.558658967598246,
        "name": "Leskoškova",
        "ref_id": "204012",
        "route_groups_on_station": ["7", "27"]
    },