[
    {
        "stop_id": "1120963",
        "name": "Spodnja Slivnica",
        "latitude": "45.934593",
        "longtitude": "14.655257"
    },
    {
        "stop_id": "1120964",
        "name": "Brezovica pri Ljubljani",
        "latitude": "46.024418",
        "longtitude": "14.421234"
    },
    {
        "stop_id": "1120966",
        "name": "Brezovica pri Ljubljani",
        "latitude": "46.023956",
        "longtitude": "14.417943"
    },
    {
        "stop_id": "1120967",
        "name": "Čušperk",
        "latitude": "45.89093",
        "longtitude": "14.698249"
    },
    {
        "stop_id": "1120968",
        "name": "Brezovica pri Ljubljani Š",
        "latitude": "46.016563",
        "longtitude": "14.414548"
    },
    {
        "stop_id": "1120969",
        "name": "Brezovica pri Ljubljani Š",
        "latitude": "46.01794",
        "longtitude": "14.415221"
    },
    {
        "stop_id": "1120977",
        "name": "Notranje Gorice mostiček",
        "latitude": "45.995564",
        "longtitude": "14.40647"
    },
    {
        "stop_id": "1120978",
        "name": "Notranje Gorice mostiček",
        "latitude": "45.99592",
        "longtitude": "14.406489"
    },
    {
        "stop_id": "1120979",
        "name": "Notranje Gorice Š",
        "latitude": "45.987938",
        "longtitude": "14.402556"
    },
    {
        "stop_id": "1120980",
        "name": "Notranje Gorice Š",
        "latitude": "45.988",
        "longtitude": "14.402423"
    },
    {
        "stop_id": "1120981",
        "name": "Podpeč/Lj.",
        "latitude": "45.974056",
        "longtitude": "14.42047"
    },
    {
        "stop_id": "1120983",
        "name": "Podpeč/Lj.",
        "latitude": "45.97328",
        "longtitude": "14.420786"
    },
    {
        "stop_id": "1120991",
        "name": "Zg.Duplek",
        "latitude": "46.51469",
        "longtitude": "15.718226"
    },
    {
        "stop_id": "1120992",
        "name": "Zg.Duplek",
        "latitude": "46.514214",
        "longtitude": "15.718233"
    },
    {
        "stop_id": "1120993",
        "name": "Idrija",
        "latitude": "46.00115",
        "longtitude": "14.025828"
    },
    {
        "stop_id": "1120994",
        "name": "Idrija Kolektor",
        "latitude": "46.007553",
        "longtitude": "14.027973"
    },
    {
        "stop_id": "1120995",
        "name": "Idrija Kolektor",
        "latitude": "46.00767",
        "longtitude": "14.028247"
    },
    {
        "stop_id": "1120996",
        "name": "Idrija Likerca",
        "latitude": "45.995544",
        "longtitude": "14.034524"
    },
    {
        "stop_id": "1120997",
        "name": "Idrija Likerca",
        "latitude": "45.99682",
        "longtitude": "14.034907"
    },
    {
        "stop_id": "1120999",
        "name": "Idrija Mestni trg.",
        "latitude": "46.000927",
        "longtitude": "14.021752"
    },
    {
        "stop_id": "1121000",
        "name": "Podroteja",
        "latitude": "45.987392",
        "longtitude": "14.032305"
    },
    {
        "stop_id": "1121001",
        "name": "Podroteja",
        "latitude": "45.98705",
        "longtitude": "14.03204"
    },
    {
        "stop_id": "1121002",
        "name": "Idrija Uta",
        "latitude": "46.00197",
        "longtitude": "14.028435"
    },
    {
        "stop_id": "1121003",
        "name": "Idrija Uta",
        "latitude": "46.00165",
        "longtitude": "14.028961"
    },
    {
        "stop_id": "1121004",
        "name": "Marof/Idriji",
        "latitude": "46.02051",
        "longtitude": "14.029357"
    },
    {
        "stop_id": "1121005",
        "name": "Marof/Idriji",
        "latitude": "46.021133",
        "longtitude": "14.029183"
    },
    {
        "stop_id": "1121006",
        "name": "Marof/Idriji",
        "latitude": "46.021202",
        "longtitude": "14.029813"
    },
    {
        "stop_id": "1121007",
        "name": "Sp.Idrija",
        "latitude": "46.032425",
        "longtitude": "14.025602"
    },
    {
        "stop_id": "1121008",
        "name": "Sp.Idrija",
        "latitude": "46.032288",
        "longtitude": "14.025448"
    },
    {
        "stop_id": "1121009",
        "name": "Sp.Idrija ILES",
        "latitude": "46.034157",
        "longtitude": "14.0152445"
    },
    {
        "stop_id": "1121010",
        "name": "Sp.Idrija ILES",
        "latitude": "46.034134",
        "longtitude": "14.015038"
    },
    {
        "stop_id": "1121011",
        "name": "Sp.Idrija ILES",
        "latitude": "46.03392",
        "longtitude": "14.01404"
    },
    {
        "stop_id": "1121012",
        "name": "Sp.Idrija ILES",
        "latitude": "46.03399",
        "longtitude": "14.014038"
    },
    {
        "stop_id": "1121015",
        "name": "Ig AP",
        "latitude": "45.958904",
        "longtitude": "14.528001"
    },
    {
        "stop_id": "1121020",
        "name": "Bol.Izola",
        "latitude": "45.54386",
        "longtitude": "13.690357"
    },
    {
        "stop_id": "1121021",
        "name": "Blejska Dobrava Iskra",
        "latitude": "46.409584",
        "longtitude": "14.102042"
    },
    {
        "stop_id": "1121022",
        "name": "Blejska Dobrava K",
        "latitude": "46.41246",
        "longtitude": "14.094548"
    },
    {
        "stop_id": "1121023",
        "name": "Blejska Dobrava K",
        "latitude": "46.41239",
        "longtitude": "14.094965"
    },
    {
        "stop_id": "1121025",
        "name": "Blejska Dobrava trgovina",
        "latitude": "46.409477",
        "longtitude": "14.098131"
    },
    {
        "stop_id": "1121026",
        "name": "Blejska Dobrava trgovina",
        "latitude": "46.409775",
        "longtitude": "14.0982485"
    },
    {
        "stop_id": "1121035",
        "name": "Hrušica Belo Polje",
        "latitude": "46.451355",
        "longtitude": "14.002314"
    },
    {
        "stop_id": "1121038",
        "name": "Hrušica K",
        "latitude": "46.448322",
        "longtitude": "14.014747"
    },
    {
        "stop_id": "1121039",
        "name": "Hrušica K",
        "latitude": "46.448105",
        "longtitude": "14.015146"
    },
    {
        "stop_id": "1121040",
        "name": "Hrušica/Jes.",
        "latitude": "46.446712",
        "longtitude": "14.01651"
    },
    {
        "stop_id": "1121041",
        "name": "Hrušica/Jes.",
        "latitude": "46.447495",
        "longtitude": "14.013703"
    },
    {
        "stop_id": "1121047",
        "name": "Jesenice bolnica",
        "latitude": "46.442993",
        "longtitude": "14.035053"
    },
    {
        "stop_id": "1121048",
        "name": "Jesenice bolnica",
        "latitude": "46.44287",
        "longtitude": "14.035649"
    },
    {
        "stop_id": "1121049",
        "name": "Jesenice Gimnazija",
        "latitude": "46.43569",
        "longtitude": "14.059597"
    },
    {
        "stop_id": "1121050",
        "name": "Jesenice Gimnazija",
        "latitude": "46.435886",
        "longtitude": "14.059538"
    },
    {
        "stop_id": "1121051",
        "name": "Jesenice Integral",
        "latitude": "46.4372",
        "longtitude": "14.048649"
    },
    {
        "stop_id": "1121052",
        "name": "Jesenice Integral",
        "latitude": "46.437138",
        "longtitude": "14.049588"
    },
    {
        "stop_id": "1121053",
        "name": "Jesenice občina",
        "latitude": "46.43205",
        "longtitude": "14.062704"
    },
    {
        "stop_id": "1121054",
        "name": "Jesenice občina",
        "latitude": "46.43189",
        "longtitude": "14.063433"
    },
    {
        "stop_id": "1121055",
        "name": "Jesenice Senožeti",
        "latitude": "46.430172",
        "longtitude": "14.073293"
    },
    {
        "stop_id": "1121056",
        "name": "Jesenice Senožeti",
        "latitude": "46.430298",
        "longtitude": "14.073286"
    },
    {
        "stop_id": "1121057",
        "name": "Jesenice ZD",
        "latitude": "46.439667",
        "longtitude": "14.044396"
    },
    {
        "stop_id": "1121058",
        "name": "Jesenice ZD",
        "latitude": "46.439857",
        "longtitude": "14.044259"
    },
    {
        "stop_id": "1121059",
        "name": "Jesenice ŽP",
        "latitude": "46.43646",
        "longtitude": "14.05503"
    },
    {
        "stop_id": "1121060",
        "name": "Jesenice ŽP",
        "latitude": "46.436665",
        "longtitude": "14.054834"
    },
    {
        "stop_id": "1121061",
        "name": "Kočna",
        "latitude": "46.41538",
        "longtitude": "14.080878"
    },
    {
        "stop_id": "1121062",
        "name": "Kočna",
        "latitude": "46.414993",
        "longtitude": "14.080742"
    },
    {
        "stop_id": "1121065",
        "name": "Koroška Bela K",
        "latitude": "46.426197",
        "longtitude": "14.092611"
    },
    {
        "stop_id": "1121066",
        "name": "Koroška Bela K",
        "latitude": "46.426178",
        "longtitude": "14.092809"
    },
    {
        "stop_id": "1121067",
        "name": "Koroška Bela trgovina",
        "latitude": "46.425945",
        "longtitude": "14.098798"
    },
    {
        "stop_id": "1121068",
        "name": "Lipce",
        "latitude": "46.417515",
        "longtitude": "14.090603"
    },
    {
        "stop_id": "1121069",
        "name": "Lipce",
        "latitude": "46.418713",
        "longtitude": "14.088961"
    },
    {
        "stop_id": "1121076",
        "name": "Podkočna",
        "latitude": "46.421993",
        "longtitude": "14.083415"
    },
    {
        "stop_id": "1121077",
        "name": "Podkočna",
        "latitude": "46.42216",
        "longtitude": "14.083331"
    },
    {
        "stop_id": "1121083",
        "name": "Slovenski Javornik K",
        "latitude": "46.42796",
        "longtitude": "14.081405"
    },
    {
        "stop_id": "1121084",
        "name": "Slovenski Javornik",
        "latitude": "46.428055",
        "longtitude": "14.081565"
    },
    {
        "stop_id": "1121085",
        "name": "Slovenski Javornik",
        "latitude": "46.427593",
        "longtitude": "14.08338"
    },
    {
        "stop_id": "1121087",
        "name": "Slovenski Javornik Turist",
        "latitude": "46.42656",
        "longtitude": "14.088764"
    },
    {
        "stop_id": "1121088",
        "name": "Slovenski Javornik Turist",
        "latitude": "46.42671",
        "longtitude": "14.088664"
    },
    {
        "stop_id": "1121103",
        "name": "Koper",
        "latitude": "45.53824",
        "longtitude": "13.738235"
    },
    {
        "stop_id": "1121104",
        "name": "Koper Banka",
        "latitude": "45.544003",
        "longtitude": "13.730521"
    },
    {
        "stop_id": "1121164",
        "name": "Koper Tomos",
        "latitude": "45.531616",
        "longtitude": "13.735414"
    },
    {
        "stop_id": "1121165",
        "name": "Koper Tomos",
        "latitude": "45.53214",
        "longtitude": "13.735147"
    },
    {
        "stop_id": "1121194",
        "name": "Bobovek",
        "latitude": "46.27409",
        "longtitude": "14.364189"
    },
    {
        "stop_id": "1121202",
        "name": "Breg ob Savi",
        "latitude": "46.2092",
        "longtitude": "14.390289"
    },
    {
        "stop_id": "1121203",
        "name": "Breg ob Savi",
        "latitude": "46.20846",
        "longtitude": "14.391084"
    },
    {
        "stop_id": "1121204",
        "name": "Britof/Kr.",
        "latitude": "46.261276",
        "longtitude": "14.390369"
    },
    {
        "stop_id": "1121207",
        "name": "Britof/Kr.Johanca",
        "latitude": "46.258522",
        "longtitude": "14.38448"
    },
    {
        "stop_id": "1121208",
        "name": "Britof/Kr.Johanca",
        "latitude": "46.25834",
        "longtitude": "14.3843565"
    },
    {
        "stop_id": "1121221",
        "name": "Hrastje/Kr.",
        "latitude": "46.21804",
        "longtitude": "14.386144"
    },
    {
        "stop_id": "1121222",
        "name": "Hrastje/Kr.",
        "latitude": "46.21811",
        "longtitude": "14.385694"
    },
    {
        "stop_id": "1121225",
        "name": "Hrastje/Kr. II",
        "latitude": "46.222298",
        "longtitude": "14.38059"
    },
    {
        "stop_id": "1121226",
        "name": "Hrastje/Kr. II",
        "latitude": "46.22189",
        "longtitude": "14.381584"
    },
    {
        "stop_id": "1121229",
        "name": "Jama/Prašah",
        "latitude": "46.199768",
        "longtitude": "14.398504"
    },
    {
        "stop_id": "1121230",
        "name": "Jama/Prašah",
        "latitude": "46.199585",
        "longtitude": "14.398815"
    },
    {
        "stop_id": "1121233",
        "name": "Kokrica",
        "latitude": "46.266285",
        "longtitude": "14.356144"
    },
    {
        "stop_id": "1121234",
        "name": "Kokrica",
        "latitude": "46.266354",
        "longtitude": "14.35603"
    },
    {
        "stop_id": "1121237",
        "name": "Kranj AP",
        "latitude": "46.24597",
        "longtitude": "14.354714"
    },
    {
        "stop_id": "1121238",
        "name": "Kranj AP",
        "latitude": "46.245815",
        "longtitude": "14.35453"
    },
    {
        "stop_id": "1121244",
        "name": "Kranj Gorenjska oblačila",
        "latitude": "46.252647",
        "longtitude": "14.354595"
    },
    {
        "stop_id": "1121245",
        "name": "Kranj Gorenjska oblačila",
        "latitude": "46.253223",
        "longtitude": "14.354283"
    },
    {
        "stop_id": "1121246",
        "name": "Kranj Globus",
        "latitude": "46.24197",
        "longtitude": "14.355456"
    },
    {
        "stop_id": "1121247",
        "name": "Kranj Globus",
        "latitude": "46.242203",
        "longtitude": "14.355511"
    },
    {
        "stop_id": "1121248",
        "name": "Kranj Iskra Labore",
        "latitude": "46.226208",
        "longtitude": "14.355156"
    },
    {
        "stop_id": "1121249",
        "name": "Kranj Iskra Labore",
        "latitude": "46.225883",
        "longtitude": "14.353573"
    },
    {
        "stop_id": "1121253",
        "name": "Kranj Labore",
        "latitude": "46.232212",
        "longtitude": "14.352806"
    },
    {
        "stop_id": "1121254",
        "name": "Kranj Labore",
        "latitude": "46.23095",
        "longtitude": "14.353549"
    },
    {
        "stop_id": "1121255",
        "name": "Kranj Labore Draksler",
        "latitude": "46.23089",
        "longtitude": "14.355693"
    },
    {
        "stop_id": "1121256",
        "name": "Kranj Labore Draksler",
        "latitude": "46.230526",
        "longtitude": "14.355911"
    },
    {
        "stop_id": "1121257",
        "name": "Kranj Labore Šk.C.",
        "latitude": "46.232025",
        "longtitude": "14.352454"
    },
    {
        "stop_id": "1121258",
        "name": "Kranj Labore Šk.C.",
        "latitude": "46.23189",
        "longtitude": "14.352381"
    },
    {
        "stop_id": "1121259",
        "name": "Kranj Likozarjeva",
        "latitude": "46.24033",
        "longtitude": "14.362775"
    },
    {
        "stop_id": "1121260",
        "name": "Kranj Likozarjeva",
        "latitude": "46.239788",
        "longtitude": "14.362526"
    },
    {
        "stop_id": "1121261",
        "name": "Kranj Novi dom",
        "latitude": "46.238655",
        "longtitude": "14.359226"
    },
    {
        "stop_id": "1121262",
        "name": "Kranj Novi dom",
        "latitude": "46.238758",
        "longtitude": "14.358826"
    },
    {
        "stop_id": "1121263",
        "name": "Kranj Orehek nas.",
        "latitude": "46.22529",
        "longtitude": "14.36041"
    },
    {
        "stop_id": "1121264",
        "name": "Kranj Orehek nas.",
        "latitude": "46.225937",
        "longtitude": "14.360134"
    },
    {
        "stop_id": "1121265",
        "name": "Kranj Orehek trg.",
        "latitude": "46.22172",
        "longtitude": "14.364418"
    },
    {
        "stop_id": "1121266",
        "name": "Kranj Orehek trg.",
        "latitude": "46.222294",
        "longtitude": "14.363917"
    },
    {
        "stop_id": "1121269",
        "name": "Kranj OŠ S.Žagar",
        "latitude": "46.235306",
        "longtitude": "14.360076"
    },
    {
        "stop_id": "1121270",
        "name": "Kranj OŠ S.Žagar",
        "latitude": "46.23515",
        "longtitude": "14.360018"
    },
    {
        "stop_id": "1121274",
        "name": "Kranj Plinarna",
        "latitude": "46.243076",
        "longtitude": "14.370314"
    },
    {
        "stop_id": "1121275",
        "name": "Kranj Plinarna",
        "latitude": "46.242443",
        "longtitude": "14.371163"
    },
    {
        "stop_id": "1121278",
        "name": "Kranj Primskovo",
        "latitude": "46.24654",
        "longtitude": "14.363729"
    },
    {
        "stop_id": "1121279",
        "name": "Kranj Primskovo",
        "latitude": "46.246",
        "longtitude": "14.364387"
    },
    {
        "stop_id": "1121280",
        "name": "Kranj Primskovo GD",
        "latitude": "46.248745",
        "longtitude": "14.373507"
    },
    {
        "stop_id": "1121281",
        "name": "Kranj Primskovo GD",
        "latitude": "46.24801",
        "longtitude": "14.372518"
    },
    {
        "stop_id": "1121282",
        "name": "Kranj Primskovo ZD",
        "latitude": "46.246986",
        "longtitude": "14.370259"
    },
    {
        "stop_id": "1121283",
        "name": "Kranj Primskovo ZD",
        "latitude": "46.246452",
        "longtitude": "14.369551"
    },
    {
        "stop_id": "1121285",
        "name": "Kranj Ručigajeva K",
        "latitude": "46.239708",
        "longtitude": "14.367609"
    },
    {
        "stop_id": "1121286",
        "name": "Kranj Ručigajeva K",
        "latitude": "46.23939",
        "longtitude": "14.368092"
    },
    {
        "stop_id": "1121287",
        "name": "Kranj Savska cesta",
        "latitude": "46.23472",
        "longtitude": "14.357477"
    },
    {
        "stop_id": "1121288",
        "name": "Kranj Savska cesta",
        "latitude": "46.234806",
        "longtitude": "14.357494"
    },
    {
        "stop_id": "1121289",
        "name": "Kranj Stolpnice",
        "latitude": "46.232594",
        "longtitude": "14.363427"
    },
    {
        "stop_id": "1121290",
        "name": "Kranj Stolpnice",
        "latitude": "46.23304",
        "longtitude": "14.362442"
    },
    {
        "stop_id": "1121292",
        "name": "Kranj Stražišče Ješe",
        "latitude": "46.22929",
        "longtitude": "14.3399935"
    },
    {
        "stop_id": "1121293",
        "name": "Kranj Stražišče Ješe",
        "latitude": "46.22924",
        "longtitude": "14.339777"
    },
    {
        "stop_id": "1121294",
        "name": "Kranj Stražišče Pražarna",
        "latitude": "46.225033",
        "longtitude": "14.337038"
    },
    {
        "stop_id": "1121295",
        "name": "Kranj Stražišče Pražarna",
        "latitude": "46.22419",
        "longtitude": "14.337593"
    },
    {
        "stop_id": "1121296",
        "name": "Kranj Stražišče PTT",
        "latitude": "46.231754",
        "longtitude": "14.347277"
    },
    {
        "stop_id": "1121297",
        "name": "Kranj Stražišče PTT",
        "latitude": "46.231426",
        "longtitude": "14.346788"
    },
    {
        "stop_id": "1121302",
        "name": "Kranj V.hrib",
        "latitude": "46.261997",
        "longtitude": "14.353665"
    },
    {
        "stop_id": "1121303",
        "name": "Kranj V.hrib",
        "latitude": "46.261967",
        "longtitude": "14.35383"
    },
    {
        "stop_id": "1121307",
        "name": "Kranj ZD",
        "latitude": "46.249573",
        "longtitude": "14.352859"
    },
    {
        "stop_id": "1121308",
        "name": "Kranj ZD",
        "latitude": "46.24967",
        "longtitude": "14.35299"
    },
    {
        "stop_id": "1121309",
        "name": "Kranj ŽP",
        "latitude": "46.237278",
        "longtitude": "14.349376"
    },
    {
        "stop_id": "1121310",
        "name": "Kranj ŽP",
        "latitude": "46.236706",
        "longtitude": "14.349382"
    },
    {
        "stop_id": "1121317",
        "name": "Podreča",
        "latitude": "46.172985",
        "longtitude": "14.411095"
    },
    {
        "stop_id": "1121318",
        "name": "Podreča maln",
        "latitude": "46.16906",
        "longtitude": "14.413647"
    },
    {
        "stop_id": "1121319",
        "name": "Praše",
        "latitude": "46.194103",
        "longtitude": "14.401321"
    },
    {
        "stop_id": "1121320",
        "name": "Praše",
        "latitude": "46.194157",
        "longtitude": "14.401385"
    },
    {
        "stop_id": "1121331",
        "name": "Rakovica",
        "latitude": "46.250607",
        "longtitude": "14.322358"
    },
    {
        "stop_id": "1121360",
        "name": "Zgornje Bitnje K",
        "latitude": "46.221943",
        "longtitude": "14.339948"
    },
    {
        "stop_id": "1121361",
        "name": "Zgornje Bitnje K",
        "latitude": "46.222057",
        "longtitude": "14.339611"
    },
    {
        "stop_id": "1121362",
        "name": "Žabnica",
        "latitude": "46.196743",
        "longtitude": "14.33238"
    },
    {
        "stop_id": "1121363",
        "name": "Žabnica",
        "latitude": "46.196575",
        "longtitude": "14.332094"
    },
    {
        "stop_id": "1121365",
        "name": "Krško",
        "latitude": "45.95684",
        "longtitude": "15.493451"
    },
    {
        "stop_id": "1121373",
        "name": "Krško most",
        "latitude": "45.958515",
        "longtitude": "15.49141"
    },
    {
        "stop_id": "1121374",
        "name": "Krško most",
        "latitude": "45.956696",
        "longtitude": "15.486501"
    },
    {
        "stop_id": "1121375",
        "name": "Krško OB",
        "latitude": "45.966785",
        "longtitude": "15.485213"
    },
    {
        "stop_id": "1121377",
        "name": "Krško Sp.Grič pokop.",
        "latitude": "45.947525",
        "longtitude": "15.48725"
    },
    {
        "stop_id": "1121379",
        "name": "Krško Sp.Grič pokop.",
        "latitude": "45.9463",
        "longtitude": "15.487022"
    },
    {
        "stop_id": "1121380",
        "name": "Krško Resa",
        "latitude": "45.958645",
        "longtitude": "15.498815"
    },
    {
        "stop_id": "1121383",
        "name": "Krško St.vas",
        "latitude": "45.950485",
        "longtitude": "15.506361"
    },
    {
        "stop_id": "1121384",
        "name": "Krško St.vas",
        "latitude": "45.95071",
        "longtitude": "15.50609"
    },
    {
        "stop_id": "1121385",
        "name": "Krško Š",
        "latitude": "45.958675",
        "longtitude": "15.497493"
    },
    {
        "stop_id": "1121386",
        "name": "Krško Š",
        "latitude": "45.959156",
        "longtitude": "15.494559"
    },
    {
        "stop_id": "1121396",
        "name": "Navje",
        "latitude": "46.059692",
        "longtitude": "14.509407"
    },
    {
        "stop_id": "1121459",
        "name": "Ježica",
        "latitude": "46.09743",
        "longtitude": "14.517018"
    },
    {
        "stop_id": "1121461",
        "name": "Ježica",
        "latitude": "46.097343",
        "longtitude": "14.51686"
    },
    {
        "stop_id": "1121462",
        "name": "Sava",
        "latitude": "46.10089",
        "longtitude": "14.521773"
    },
    {
        "stop_id": "1121463",
        "name": "Sava",
        "latitude": "46.10077",
        "longtitude": "14.521809"
    },
    {
        "stop_id": "1121473",
        "name": "Kolodvor Črnuče",
        "latitude": "46.101517",
        "longtitude": "14.526228"
    },
    {
        "stop_id": "1121474",
        "name": "Kolodvor Črnuče",
        "latitude": "46.10114",
        "longtitude": "14.5250225"
    },
    {
        "stop_id": "1121483",
        "name": "Črnuče",
        "latitude": "46.1043",
        "longtitude": "14.5364895"
    },
    {
        "stop_id": "1121484",
        "name": "Zasavska",
        "latitude": "46.1039",
        "longtitude": "14.545935"
    },
    {
        "stop_id": "1121485",
        "name": "Zasavska",
        "latitude": "46.103394",
        "longtitude": "14.546875"
    },
    {
        "stop_id": "1121486",
        "name": "Ježa",
        "latitude": "46.100513",
        "longtitude": "14.553431"
    },
    {
        "stop_id": "1121487",
        "name": "Ježa",
        "latitude": "46.100113",
        "longtitude": "14.553877"
    },
    {
        "stop_id": "1121505",
        "name": "Flajšmanova",
        "latitude": "46.06453",
        "longtitude": "14.529133"
    },
    {
        "stop_id": "1121512",
        "name": "Šola Jarše",
        "latitude": "46.066666",
        "longtitude": "14.533035"
    },
    {
        "stop_id": "1121513",
        "name": "Šola Jarše",
        "latitude": "46.067234",
        "longtitude": "14.53474"
    },
    {
        "stop_id": "1121522",
        "name": "Jarše",
        "latitude": "46.06841",
        "longtitude": "14.536776"
    },
    {
        "stop_id": "1121523",
        "name": "Jarše",
        "latitude": "46.068718",
        "longtitude": "14.538613"
    },
    {
        "stop_id": "1121536",
        "name": "Nove Jarše-Šmartinska",
        "latitude": "46.070396",
        "longtitude": "14.549092"
    },
    {
        "stop_id": "1121830",
        "name": "Ljubljana Tivolska",
        "latitude": "46.0528",
        "longtitude": "14.497752"
    },
    {
        "stop_id": "1121831",
        "name": "Ljubljana Tivolska",
        "latitude": "46.052956",
        "longtitude": "14.49825"
    },
    {
        "stop_id": "1122261",
        "name": "Maribor ŽP",
        "latitude": "46.561913",
        "longtitude": "15.656837"
    },
    {
        "stop_id": "1122367",
        "name": "Maribor ELKO",
        "latitude": "46.533115",
        "longtitude": "15.645388"
    },
    {
        "stop_id": "1122368",
        "name": "Maribor ELKO",
        "latitude": "46.534416",
        "longtitude": "15.646012"
    },
    {
        "stop_id": "1122417",
        "name": "Medvode",
        "latitude": "46.13837",
        "longtitude": "14.413383"
    },
    {
        "stop_id": "1122418",
        "name": "Medvode",
        "latitude": "46.137913",
        "longtitude": "14.415179"
    },
    {
        "stop_id": "1122433",
        "name": "Murska Sobota AP",
        "latitude": "46.65879",
        "longtitude": "16.16514"
    },
    {
        "stop_id": "1122442",
        "name": "Murska Sobota Ekonom. Š",
        "latitude": "46.665314",
        "longtitude": "16.181093"
    },
    {
        "stop_id": "1122464",
        "name": "Ajševica vrh",
        "latitude": "45.944675",
        "longtitude": "13.686207"
    },
    {
        "stop_id": "1122465",
        "name": "Ajševica vrh",
        "latitude": "45.94444",
        "longtitude": "13.6870575"
    },
    {
        "stop_id": "1122466",
        "name": "Bajta",
        "latitude": "45.938503",
        "longtitude": "13.664167"
    },
    {
        "stop_id": "1122467",
        "name": "Bajta",
        "latitude": "45.938595",
        "longtitude": "13.665353"
    },
    {
        "stop_id": "1122472",
        "name": "Kromberk Hrast",
        "latitude": "45.9577",
        "longtitude": "13.655932"
    },
    {
        "stop_id": "1122473",
        "name": "Kromberk Hrast",
        "latitude": "45.957237",
        "longtitude": "13.658378"
    },
    {
        "stop_id": "1122477",
        "name": "Kromberk Meblo",
        "latitude": "45.957157",
        "longtitude": "13.663465"
    },
    {
        "stop_id": "1122478",
        "name": "Kromberk Meblo",
        "latitude": "45.95733",
        "longtitude": "13.6618595"
    },
    {
        "stop_id": "1122496",
        "name": "Nova Gorica Grčna",
        "latitude": "45.9553",
        "longtitude": "13.651803"
    },
    {
        "stop_id": "1122497",
        "name": "Nova Gorica Grčna",
        "latitude": "45.95403",
        "longtitude": "13.652903"
    },
    {
        "stop_id": "1122506",
        "name": "Nova Gorica Vojkova",
        "latitude": "45.961174",
        "longtitude": "13.649888"
    },
    {
        "stop_id": "1122507",
        "name": "Nova Gorica Vojkova",
        "latitude": "45.961407",
        "longtitude": "13.649561"
    },
    {
        "stop_id": "1122509",
        "name": "Rožna Dolina",
        "latitude": "45.94116",
        "longtitude": "13.642123"
    },
    {
        "stop_id": "1122511",
        "name": "Rožna Dolina",
        "latitude": "45.94124",
        "longtitude": "13.64323"
    },
    {
        "stop_id": "1122512",
        "name": "Rožna Dolina meja",
        "latitude": "45.941456",
        "longtitude": "13.638011"
    },
    {
        "stop_id": "1122513",
        "name": "Rožna Dolina meja",
        "latitude": "45.94134",
        "longtitude": "13.637847"
    },
    {
        "stop_id": "1122515",
        "name": "Rožna Dolina Politehnika",
        "latitude": "45.942215",
        "longtitude": "13.642038"
    },
    {
        "stop_id": "1122516",
        "name": "Rožna Dolina Politehnika",
        "latitude": "45.94222",
        "longtitude": "13.641033"
    },
    {
        "stop_id": "1122518",
        "name": "Solkan",
        "latitude": "45.973",
        "longtitude": "13.6484585"
    },
    {
        "stop_id": "1122519",
        "name": "Solkan",
        "latitude": "45.972965",
        "longtitude": "13.648606"
    },
    {
        "stop_id": "1122530",
        "name": "Novo mesto",
        "latitude": "45.802032",
        "longtitude": "15.160602"
    },
    {
        "stop_id": "1122532",
        "name": "Novo mesto bolnica GG",
        "latitude": "45.79961",
        "longtitude": "15.160972"
    },
    {
        "stop_id": "1122533",
        "name": "Novo mesto bolnica GG",
        "latitude": "45.800438",
        "longtitude": "15.161266"
    },
    {
        "stop_id": "1122547",
        "name": "Novo mesto Gotna vas",
        "latitude": "45.78883",
        "longtitude": "15.179424"
    },
    {
        "stop_id": "1122548",
        "name": "Novo mesto Gotna vas",
        "latitude": "45.790173",
        "longtitude": "15.178829"
    },
    {
        "stop_id": "1122550",
        "name": "Novo mesto Drska",
        "latitude": "45.800556",
        "longtitude": "15.153556"
    },
    {
        "stop_id": "1122551",
        "name": "Novo mesto Drska",
        "latitude": "45.800148",
        "longtitude": "15.152662"
    },
    {
        "stop_id": "1122555",
        "name": "Novo mesto Kandija",
        "latitude": "45.801163",
        "longtitude": "15.171488"
    },
    {
        "stop_id": "1122556",
        "name": "Novo mesto Kandija",
        "latitude": "45.80043",
        "longtitude": "15.172506"
    },
    {
        "stop_id": "1122560",
        "name": "Novo mesto gim.",
        "latitude": "45.80839",
        "longtitude": "15.164564"
    },
    {
        "stop_id": "1122561",
        "name": "Novo mesto gim.",
        "latitude": "45.80862",
        "longtitude": "15.16443"
    },
    {
        "stop_id": "1122562",
        "name": "Novo mesto Krka",
        "latitude": "45.816383",
        "longtitude": "15.179001"
    },
    {
        "stop_id": "1122563",
        "name": "Novo mesto Krka",
        "latitude": "45.815617",
        "longtitude": "15.177707"
    },
    {
        "stop_id": "1122599",
        "name": "Novo mesto Revoz",
        "latitude": "45.79617",
        "longtitude": "15.179786"
    },
    {
        "stop_id": "1122601",
        "name": "Sevno",
        "latitude": "45.83267",
        "longtitude": "15.18896"
    },
    {
        "stop_id": "1122602",
        "name": "Sevno",
        "latitude": "45.832664",
        "longtitude": "15.188842"
    },
    {
        "stop_id": "1122605",
        "name": "Novo mesto Šmihel",
        "latitude": "45.79356",
        "longtitude": "15.164602"
    },
    {
        "stop_id": "1122606",
        "name": "Novo mesto novi most",
        "latitude": "45.80461",
        "longtitude": "15.162569"
    },
    {
        "stop_id": "1122618",
        "name": "Novo mesto Žabja vas",
        "latitude": "45.79985",
        "longtitude": "15.182411"
    },
    {
        "stop_id": "1122619",
        "name": "Novo mesto Žabja vas",
        "latitude": "45.799713",
        "longtitude": "15.181652"
    },
    {
        "stop_id": "1122620",
        "name": "Novo mesto Bršljin",
        "latitude": "45.81254",
        "longtitude": "15.156161"
    },
    {
        "stop_id": "1122621",
        "name": "Novo mesto Bršljin",
        "latitude": "45.81269",
        "longtitude": "15.155662"
    },
    {
        "stop_id": "1122634",
        "name": "Lucija",
        "latitude": "45.506832",
        "longtitude": "13.600049"
    },
    {
        "stop_id": "1122635",
        "name": "Lucija",
        "latitude": "45.506577",
        "longtitude": "13.600285"
    },
    {
        "stop_id": "1122637",
        "name": "Lucija TPC",
        "latitude": "45.50255",
        "longtitude": "13.602919"
    },
    {
        "stop_id": "1122640",
        "name": "Lucija Š",
        "latitude": "45.5066",
        "longtitude": "13.6067915"
    },
    {
        "stop_id": "1122645",
        "name": "Piran",
        "latitude": "45.524834",
        "longtitude": "13.5672245"
    },
    {
        "stop_id": "1122649",
        "name": "Portorož",
        "latitude": "45.51352",
        "longtitude": "13.595582"
    },
    {
        "stop_id": "1122650",
        "name": "Portorož H",
        "latitude": "45.514286",
        "longtitude": "13.590776"
    },
    {
        "stop_id": "1122651",
        "name": "Portorož H",
        "latitude": "45.514065",
        "longtitude": "13.59169"
    },
    {
        "stop_id": "1122652",
        "name": "Strunjan",
        "latitude": "45.52539",
        "longtitude": "13.610622"
    },
    {
        "stop_id": "1122666",
        "name": "LIV Petrol",
        "latitude": "45.767483",
        "longtitude": "14.197991"
    },
    {
        "stop_id": "1122667",
        "name": "LIV Petrol",
        "latitude": "45.766705",
        "longtitude": "14.197542"
    },
    {
        "stop_id": "1122678",
        "name": "Postojna LIV",
        "latitude": "45.77001",
        "longtitude": "14.197879"
    },
    {
        "stop_id": "1122679",
        "name": "Postojna LIV",
        "latitude": "45.76968",
        "longtitude": "14.195798"
    },
    {
        "stop_id": "1122686",
        "name": "Trnje",
        "latitude": "46.174427",
        "longtitude": "14.291971"
    },
    {
        "stop_id": "1122687",
        "name": "Trnje",
        "latitude": "46.17381",
        "longtitude": "14.295118"
    },
    {
        "stop_id": "1122688",
        "name": "Podlubnik",
        "latitude": "46.174473",
        "longtitude": "14.289799"
    },
    {
        "stop_id": "1122689",
        "name": "Stari Dvor Frankovo",
        "latitude": "46.17144",
        "longtitude": "14.323948"
    },
    {
        "stop_id": "1122690",
        "name": "Stari Dvor Frankovo",
        "latitude": "46.171856",
        "longtitude": "14.325082"
    },
    {
        "stop_id": "1122691",
        "name": "Škofja Loka",
        "latitude": "46.167076",
        "longtitude": "14.306321"
    },
    {
        "stop_id": "1122692",
        "name": "Škofja Loka",
        "latitude": "46.16718",
        "longtitude": "14.306565"
    },
    {
        "stop_id": "1122693",
        "name": "Škofja Loka Kroj",
        "latitude": "46.171005",
        "longtitude": "14.339982"
    },
    {
        "stop_id": "1122694",
        "name": "Škofja Loka Kroj",
        "latitude": "46.171055",
        "longtitude": "14.340115"
    },
    {
        "stop_id": "1122695",
        "name": "Škofja Loka Lipica",
        "latitude": "46.168625",
        "longtitude": "14.340682"
    },
    {
        "stop_id": "1122696",
        "name": "Škofja Loka Plevna",
        "latitude": "46.166878",
        "longtitude": "14.314234"
    },
    {
        "stop_id": "1122697",
        "name": "Škofja Loka Plevna",
        "latitude": "46.16688",
        "longtitude": "14.315973"
    },
    {
        "stop_id": "1122698",
        "name": "Škofja Loka St.Loka",
        "latitude": "46.1705",
        "longtitude": "14.300448"
    },
    {
        "stop_id": "1122699",
        "name": "Škofja Loka St.Loka",
        "latitude": "46.1704",
        "longtitude": "14.300099"
    },
    {
        "stop_id": "1122700",
        "name": "Škofja Loka ŽP",
        "latitude": "46.17412",
        "longtitude": "14.3353815"
    },
    {
        "stop_id": "1122701",
        "name": "Škofja Loka ŽP",
        "latitude": "46.17399",
        "longtitude": "14.335482"
    },
    {
        "stop_id": "1122702",
        "name": "Trata MD",
        "latitude": "46.173008",
        "longtitude": "14.328432"
    },
    {
        "stop_id": "1122703",
        "name": "Trata MD",
        "latitude": "46.173073",
        "longtitude": "14.329748"
    },
    {
        "stop_id": "1122706",
        "name": "Lavrica pri Malči",
        "latitude": "46.00156",
        "longtitude": "14.554315"
    },
    {
        "stop_id": "1122707",
        "name": "Lavrica pri Malči",
        "latitude": "46.00027",
        "longtitude": "14.555323"
    },
    {
        "stop_id": "1122708",
        "name": "Lavrica",
        "latitude": "45.99692",
        "longtitude": "14.558122"
    },
    {
        "stop_id": "1122709",
        "name": "Lavrica",
        "latitude": "45.997124",
        "longtitude": "14.557955"
    },
    {
        "stop_id": "1122710",
        "name": "Škofljica Petkovšek",
        "latitude": "45.989574",
        "longtitude": "14.566548"
    },
    {
        "stop_id": "1122711",
        "name": "Škofljica Petkovšek",
        "latitude": "45.989506",
        "longtitude": "14.566422"
    },
    {
        "stop_id": "1122712",
        "name": "Škofljica žaga",
        "latitude": "45.986202",
        "longtitude": "14.571352"
    },
    {
        "stop_id": "1122713",
        "name": "Škofljica žaga",
        "latitude": "45.98581",
        "longtitude": "14.571713"
    },
    {
        "stop_id": "1122719",
        "name": "Škofljica",
        "latitude": "45.983013",
        "longtitude": "14.577227"
    },
    {
        "stop_id": "1122728",
        "name": "Velenje",
        "latitude": "46.358593",
        "longtitude": "15.119273"
    },
    {
        "stop_id": "1122729",
        "name": "Velenje avto center Prap.",
        "latitude": "46.360313",
        "longtitude": "15.125023"
    },
    {
        "stop_id": "1122737",
        "name": "Velenje Pos. c. Efenkova",
        "latitude": "46.363247",
        "longtitude": "15.1235075"
    },
    {
        "stop_id": "1122738",
        "name": "Velenje pošta",
        "latitude": "46.361046",
        "longtitude": "15.118186"
    },
    {
        "stop_id": "1122739",
        "name": "Velenje pošta",
        "latitude": "46.360275",
        "longtitude": "15.118345"
    },
    {
        "stop_id": "1122740",
        "name": "Velenje Rud.dom",
        "latitude": "46.368713",
        "longtitude": "15.104099"
    },
    {
        "stop_id": "1122741",
        "name": "Velenje Rud.dom",
        "latitude": "46.368156",
        "longtitude": "15.104283"
    },
    {
        "stop_id": "1122742",
        "name": "Velenje jezero",
        "latitude": "46.371105",
        "longtitude": "15.098313"
    },
    {
        "stop_id": "1122743",
        "name": "Velenje jezero",
        "latitude": "46.37096",
        "longtitude": "15.098509"
    },
    {
        "stop_id": "1122750",
        "name": "Velenje trž.",
        "latitude": "46.364784",
        "longtitude": "15.109779"
    },
    {
        "stop_id": "1122751",
        "name": "Velenje trž.",
        "latitude": "46.364605",
        "longtitude": "15.110682"
    },
    {
        "stop_id": "1122754",
        "name": "Velenje ŽP",
        "latitude": "46.36194",
        "longtitude": "15.106482"
    },
    {
        "stop_id": "1122755",
        "name": "Velenje ŽP",
        "latitude": "46.362495",
        "longtitude": "15.106669"
    },
    {
        "stop_id": "1122757",
        "name": "Šempeter/Gorici N.Letrika",
        "latitude": "45.921562",
        "longtitude": "13.638484"
    },
    {
        "stop_id": "1122758",
        "name": "Šempeter/Gorici N.Letrika",
        "latitude": "45.921474",
        "longtitude": "13.638948"
    },
    {
        "stop_id": "1122759",
        "name": "Šempeter/Gorici Podmark",
        "latitude": "45.93598",
        "longtitude": "13.639718"
    },
    {
        "stop_id": "1122760",
        "name": "Šempeter/Gorici Podmark",
        "latitude": "45.936863",
        "longtitude": "13.639105"
    },
    {
        "stop_id": "1122761",
        "name": "Šempeter/Gorici pošta",
        "latitude": "45.92858",
        "longtitude": "13.641164"
    },
    {
        "stop_id": "1122762",
        "name": "Šempeter/Gorici",
        "latitude": "45.93033",
        "longtitude": "13.639393"
    },
    {
        "stop_id": "1122763",
        "name": "Šempeter/Gorici",
        "latitude": "45.930202",
        "longtitude": "13.639945"
    },
    {
        "stop_id": "1122764",
        "name": "Šempeter/Gorici Biotehn.",
        "latitude": "45.93187",
        "longtitude": "13.644108"
    },
    {
        "stop_id": "1122765",
        "name": "Šempeter/Gorici Letrika",
        "latitude": "45.92412",
        "longtitude": "13.640726"
    },
    {
        "stop_id": "1122766",
        "name": "Šempeter/Gorici Letrika",
        "latitude": "45.924004",
        "longtitude": "13.640883"
    },
    {
        "stop_id": "1122767",
        "name": "Vrtojba",
        "latitude": "45.906704",
        "longtitude": "13.629463"
    },
    {
        "stop_id": "1122768",
        "name": "Vrtojba",
        "latitude": "45.907814",
        "longtitude": "13.630675"
    },
    {
        "stop_id": "1122769",
        "name": "Vrtojba bife",
        "latitude": "45.91563",
        "longtitude": "13.637206"
    },
    {
        "stop_id": "1122770",
        "name": "Vrtojba bife",
        "latitude": "45.915733",
        "longtitude": "13.637064"
    },
    {
        "stop_id": "1122771",
        "name": "Vrtojba cerkev",
        "latitude": "45.911266",
        "longtitude": "13.634997"
    },
    {
        "stop_id": "1122772",
        "name": "Vrtojba cerkev",
        "latitude": "45.9109",
        "longtitude": "13.634583"
    },
    {
        "stop_id": "1122782",
        "name": "Dobova",
        "latitude": "45.898647",
        "longtitude": "15.654863"
    },
    {
        "stop_id": "1122783",
        "name": "Brežice",
        "latitude": "45.92384",
        "longtitude": "15.589957"
    },
    {
        "stop_id": "1122784",
        "name": "Libna",
        "latitude": "45.945408",
        "longtitude": "15.540299"
    },
    {
        "stop_id": "1122785",
        "name": "Krško",
        "latitude": "45.956173",
        "longtitude": "15.493433"
    },
    {
        "stop_id": "1122786",
        "name": "Brestanica",
        "latitude": "45.987606",
        "longtitude": "15.46945"
    },
    {
        "stop_id": "1122787",
        "name": "Blanca",
        "latitude": "45.98988",
        "longtitude": "15.395912"
    },
    {
        "stop_id": "1122788",
        "name": "Sevnica",
        "latitude": "46.009514",
        "longtitude": "15.301099"
    },
    {
        "stop_id": "1122789",
        "name": "Breg",
        "latitude": "46.041626",
        "longtitude": "15.235613"
    },
    {
        "stop_id": "1122790",
        "name": "Loka",
        "latitude": "46.053562",
        "longtitude": "15.205518"
    },
    {
        "stop_id": "1122791",
        "name": "Radeče",
        "latitude": "46.064484",
        "longtitude": "15.192287"
    },
    {
        "stop_id": "1122792",
        "name": "Zidani Most",
        "latitude": "46.08532",
        "longtitude": "15.170453"
    },
    {
        "stop_id": "1122793",
        "name": "Hrastnik",
        "latitude": "46.12255",
        "longtitude": "15.09354"
    },
    {
        "stop_id": "1122794",
        "name": "Trbovlje",
        "latitude": "46.12626",
        "longtitude": "15.036914"
    },
    {
        "stop_id": "1122795",
        "name": "Zagorje",
        "latitude": "46.12056",
        "longtitude": "14.991144"
    },
    {
        "stop_id": "1122796",
        "name": "Sava",
        "latitude": "46.08881",
        "longtitude": "14.899179"
    },
    {
        "stop_id": "1122797",
        "name": "Litija",
        "latitude": "46.058125",
        "longtitude": "14.825156"
    },
    {
        "stop_id": "1122798",
        "name": "Kresnice",
        "latitude": "46.103096",
        "longtitude": "14.791296"
    },
    {
        "stop_id": "1122799",
        "name": "Jevnica",
        "latitude": "46.08416",
        "longtitude": "14.736712"
    },
    {
        "stop_id": "1122800",
        "name": "Laze",
        "latitude": "46.08821",
        "longtitude": "14.687619"
    },
    {
        "stop_id": "1122801",
        "name": "Ljubljana Polje",
        "latitude": "46.059532",
        "longtitude": "14.584722"
    },
    {
        "stop_id": "1122803",
        "name": "Ljubljana Zalog",
        "latitude": "46.05941",
        "longtitude": "14.6153755"
    },
    {
        "stop_id": "1122804",
        "name": "Ljubljana",
        "latitude": "46.05851",
        "longtitude": "14.512923"
    },
    {
        "stop_id": "1122806",
        "name": "Ljubljana Vižmarje",
        "latitude": "46.100533",
        "longtitude": "14.464738"
    },
    {
        "stop_id": "1122807",
        "name": "Medno",
        "latitude": "46.12213",
        "longtitude": "14.43915"
    },
    {
        "stop_id": "1122808",
        "name": "Medvode",
        "latitude": "46.13789",
        "longtitude": "14.412227"
    },
    {
        "stop_id": "1122809",
        "name": "Reteče",
        "latitude": "46.156513",
        "longtitude": "14.371182"
    },
    {
        "stop_id": "1122810",
        "name": "Škofja Loka",
        "latitude": "46.174465",
        "longtitude": "14.335724"
    },
    {
        "stop_id": "1122811",
        "name": "Kranj",
        "latitude": "46.238956",
        "longtitude": "14.348073"
    },
    {
        "stop_id": "1122812",
        "name": "Podnart",
        "latitude": "46.293896",
        "longtitude": "14.258474"
    },
    {
        "stop_id": "1122813",
        "name": "Otoče",
        "latitude": "46.31099",
        "longtitude": "14.232478"
    },
    {
        "stop_id": "1122814",
        "name": "Globoko",
        "latitude": "46.323277",
        "longtitude": "14.208459"
    },
    {
        "stop_id": "1122815",
        "name": "Radovljica",
        "latitude": "46.340416",
        "longtitude": "14.1737585"
    },
    {
        "stop_id": "1122816",
        "name": "Lesce-Bled",
        "latitude": "46.360325",
        "longtitude": "14.157865"
    },
    {
        "stop_id": "1122817",
        "name": "Žirovnica",
        "latitude": "46.401867",
        "longtitude": "14.135635"
    },
    {
        "stop_id": "1122818",
        "name": "Slovenski Javornik",
        "latitude": "46.42716",
        "longtitude": "14.088166"
    },
    {
        "stop_id": "1122819",
        "name": "Litostroj",
        "latitude": "46.077328",
        "longtitude": "14.489743"
    },
    {
        "stop_id": "1122820",
        "name": "Ljubljana Stegne",
        "latitude": "46.086773",
        "longtitude": "14.480004"
    },
    {
        "stop_id": "1122821",
        "name": "Ljubljana Črnuče",
        "latitude": "46.10088",
        "longtitude": "14.526307"
    },
    {
        "stop_id": "1122822",
        "name": "Domžale",
        "latitude": "46.139256",
        "longtitude": "14.592419"
    },
    {
        "stop_id": "1122823",
        "name": "Jarše-Mengeš",
        "latitude": "46.165688",
        "longtitude": "14.593859"
    },
    {
        "stop_id": "1122824",
        "name": "Kamnik",
        "latitude": "46.220802",
        "longtitude": "14.603601"
    },
    {
        "stop_id": "1122825",
        "name": "Kamnik mesto",
        "latitude": "46.22481",
        "longtitude": "14.609162"
    },
    {
        "stop_id": "1122826",
        "name": "Kamnik Graben",
        "latitude": "46.228737",
        "longtitude": "14.609509"
    },
    {
        "stop_id": "1122827",
        "name": "Ljubljana Brinje",
        "latitude": "46.076237",
        "longtitude": "14.503029"
    },
    {
        "stop_id": "1122828",
        "name": "Trzin Mlake",
        "latitude": "46.128574",
        "longtitude": "14.559733"
    },
    {
        "stop_id": "1122829",
        "name": "Trzin",
        "latitude": "46.132732",
        "longtitude": "14.567662"
    },
    {
        "stop_id": "1122830",
        "name": "Rodica",
        "latitude": "46.14901",
        "longtitude": "14.592513"
    },
    {
        "stop_id": "1122831",
        "name": "Homec pri Kamniku",
        "latitude": "46.179836",
        "longtitude": "14.59063"
    },
    {
        "stop_id": "1122832",
        "name": "Šmarca",
        "latitude": "46.193104",
        "longtitude": "14.588594"
    },
    {
        "stop_id": "1122833",
        "name": "Duplica-Bakovnik",
        "latitude": "46.206036",
        "longtitude": "14.59428"
    },
    {
        "stop_id": "1122834",
        "name": "Ljubljana Ježica",
        "latitude": "46.089844",
        "longtitude": "14.507403"
    },
    {
        "stop_id": "1122835",
        "name": "Trzin ind. cona",
        "latitude": "46.11887",
        "longtitude": "14.551007"
    },
    {
        "stop_id": "1122836",
        "name": "Jesenice",
        "latitude": "46.436127",
        "longtitude": "14.053726"
    },
    {
        "stop_id": "1122837",
        "name": "Rosalnice",
        "latitude": "45.64883",
        "longtitude": "15.336229"
    },
    {
        "stop_id": "1122838",
        "name": "Metlika",
        "latitude": "45.64246",
        "longtitude": "15.323136"
    },
    {
        "stop_id": "1122839",
        "name": "Dobravice",
        "latitude": "45.63226",
        "longtitude": "15.2698965"
    },
    {
        "stop_id": "1122840",
        "name": "Gradac",
        "latitude": "45.61437",
        "longtitude": "15.241353"
    },
    {
        "stop_id": "1122841",
        "name": "Črnomelj",
        "latitude": "45.58001",
        "longtitude": "15.191117"
    },
    {
        "stop_id": "1122842",
        "name": "Otovec",
        "latitude": "45.598892",
        "longtitude": "15.161646"
    },
    {
        "stop_id": "1122843",
        "name": "Semič",
        "latitude": "45.64307",
        "longtitude": "15.161916"
    },
    {
        "stop_id": "1122844",
        "name": "Rožni Dol",
        "latitude": "45.681816",
        "longtitude": "15.148425"
    },
    {
        "stop_id": "1122845",
        "name": "Uršna sela",
        "latitude": "45.714523",
        "longtitude": "15.127903"
    },
    {
        "stop_id": "1122846",
        "name": "Birčna vas",
        "latitude": "45.757725",
        "longtitude": "15.147812"
    },
    {
        "stop_id": "1122847",
        "name": "Novo mesto Kandija",
        "latitude": "45.799793",
        "longtitude": "15.160648"
    },
    {
        "stop_id": "1122848",
        "name": "Novo mesto center",
        "latitude": "45.804474",
        "longtitude": "15.16215"
    },
    {
        "stop_id": "1122849",
        "name": "Novo mesto",
        "latitude": "45.81084",
        "longtitude": "15.155733"
    },
    {
        "stop_id": "1122850",
        "name": "Mirna Peč",
        "latitude": "45.86678",
        "longtitude": "15.091524"
    },
    {
        "stop_id": "1122851",
        "name": "Ponikve na Dolenjskem",
        "latitude": "45.89778",
        "longtitude": "15.042767"
    },
    {
        "stop_id": "1122852",
        "name": "Hudo",
        "latitude": "45.833866",
        "longtitude": "15.136319"
    },
    {
        "stop_id": "1122853",
        "name": "Trebnje",
        "latitude": "45.906708",
        "longtitude": "15.008669"
    },
    {
        "stop_id": "1122854",
        "name": "Štefan",
        "latitude": "45.912712",
        "longtitude": "14.980418"
    },
    {
        "stop_id": "1122855",
        "name": "Velika Loka",
        "latitude": "45.932137",
        "longtitude": "14.969332"
    },
    {
        "stop_id": "1122856",
        "name": "Šentlovrenc",
        "latitude": "45.938004",
        "longtitude": "14.941045"
    },
    {
        "stop_id": "1122857",
        "name": "Gaber",
        "latitude": "45.940483",
        "longtitude": "14.909306"
    },
    {
        "stop_id": "1122858",
        "name": "Radohova vas",
        "latitude": "45.943203",
        "longtitude": "14.873202"
    },
    {
        "stop_id": "1122859",
        "name": "Šentvid pri Stični",
        "latitude": "45.94075",
        "longtitude": "14.84999"
    },
    {
        "stop_id": "1122860",
        "name": "Ivančna Gorica",
        "latitude": "45.938007",
        "longtitude": "14.803152"
    },
    {
        "stop_id": "1122861",
        "name": "Polževo",
        "latitude": "45.940716",
        "longtitude": "14.779212"
    },
    {
        "stop_id": "1122862",
        "name": "Višnja Gora",
        "latitude": "45.95813",
        "longtitude": "14.742348"
    },
    {
        "stop_id": "1122863",
        "name": "Žalna",
        "latitude": "45.939606",
        "longtitude": "14.707554"
    },
    {
        "stop_id": "1122864",
        "name": "Mlačevo",
        "latitude": "45.94033",
        "longtitude": "14.685266"
    },
    {
        "stop_id": "1122865",
        "name": "Grosuplje",
        "latitude": "45.955906",
        "longtitude": "14.652322"
    },
    {
        "stop_id": "1122866",
        "name": "Šmarje-Sap",
        "latitude": "45.975098",
        "longtitude": "14.617739"
    },
    {
        "stop_id": "1122867",
        "name": "Škofljica",
        "latitude": "45.984333",
        "longtitude": "14.572766"
    },
    {
        "stop_id": "1122868",
        "name": "Ljubljana Rakovnik",
        "latitude": "46.036903",
        "longtitude": "14.518857"
    },
    {
        "stop_id": "1122869",
        "name": "Ljubljana Vodmat",
        "latitude": "46.055782",
        "longtitude": "14.5292015"
    },
    {
        "stop_id": "1122870",
        "name": "Dobrepolje",
        "latitude": "45.85852",
        "longtitude": "14.681471"
    },
    {
        "stop_id": "1122871",
        "name": "Velike Lašče",
        "latitude": "45.841927",
        "longtitude": "14.6453"
    },
    {
        "stop_id": "1122872",
        "name": "Ortnek",
        "latitude": "45.790234",
        "longtitude": "14.680375"
    },
    {
        "stop_id": "1122873",
        "name": "Ribnica",
        "latitude": "45.74346",
        "longtitude": "14.730638"
    },
    {
        "stop_id": "1122874",
        "name": "Stara Cerkev",
        "latitude": "45.66812",
        "longtitude": "14.839604"
    },
    {
        "stop_id": "1122875",
        "name": "Kočevje",
        "latitude": "45.646374",
        "longtitude": "14.857127"
    },
    {
        "stop_id": "1122876",
        "name": "Žlebič",
        "latitude": "45.76792",
        "longtitude": "14.692182"
    },
    {
        "stop_id": "1122877",
        "name": "Boštanj",
        "latitude": "46.007397",
        "longtitude": "15.290111"
    },
    {
        "stop_id": "1122878",
        "name": "Jelovec",
        "latitude": "45.989174",
        "longtitude": "15.239941"
    },
    {
        "stop_id": "1122879",
        "name": "Tržišče",
        "latitude": "45.96647",
        "longtitude": "15.190922"
    },
    {
        "stop_id": "1122880",
        "name": "Pijavice",
        "latitude": "45.96821",
        "longtitude": "15.163391"
    },
    {
        "stop_id": "1122881",
        "name": "Mokronog",
        "latitude": "45.95802",
        "longtitude": "15.121515"
    },
    {
        "stop_id": "1122882",
        "name": "Šentrupert",
        "latitude": "45.95947",
        "longtitude": "15.087732"
    },
    {
        "stop_id": "1122883",
        "name": "Mirna",
        "latitude": "45.949223",
        "longtitude": "15.062493"
    },
    {
        "stop_id": "1122884",
        "name": "Gomila",
        "latitude": "45.93479",
        "longtitude": "15.044969"
    },
    {
        "stop_id": "1122885",
        "name": "Trebnje Kamna Gora",
        "latitude": "45.906105",
        "longtitude": "15.024556"
    },
    {
        "stop_id": "1122886",
        "name": "Rimske Toplice",
        "latitude": "46.12372",
        "longtitude": "15.203063"
    },
    {
        "stop_id": "1122887",
        "name": "Laško",
        "latitude": "46.15451",
        "longtitude": "15.232055"
    },
    {
        "stop_id": "1122888",
        "name": "Celje",
        "latitude": "46.22848",
        "longtitude": "15.268323"
    },
    {
        "stop_id": "1122889",
        "name": "Štore",
        "latitude": "46.221436",
        "longtitude": "15.321916"
    },
    {
        "stop_id": "1122890",
        "name": "Šentjur",
        "latitude": "46.21298",
        "longtitude": "15.396252"
    },
    {
        "stop_id": "1122891",
        "name": "Grobelno",
        "latitude": "46.21309",
        "longtitude": "15.439606"
    },
    {
        "stop_id": "1122892",
        "name": "Ponikva",
        "latitude": "46.247875",
        "longtitude": "15.430676"
    },
    {
        "stop_id": "1122893",
        "name": "Dolga Gora",
        "latitude": "46.27754",
        "longtitude": "15.498105"
    },
    {
        "stop_id": "1122894",
        "name": "Poljčane",
        "latitude": "46.313446",
        "longtitude": "15.576584"
    },
    {
        "stop_id": "1122895",
        "name": "Slovenska Bistrica",
        "latitude": "46.36311",
        "longtitude": "15.5981245"
    },
    {
        "stop_id": "1122896",
        "name": "Ostrožno",
        "latitude": "46.264072",
        "longtitude": "15.472933"
    },
    {
        "stop_id": "1122897",
        "name": "Šentvid pri Grobelnem",
        "latitude": "46.227436",
        "longtitude": "15.470306"
    },
    {
        "stop_id": "1122898",
        "name": "Šmarje pri Jelšah",
        "latitude": "46.23066",
        "longtitude": "15.516976"
    },
    {
        "stop_id": "1122899",
        "name": "Pragersko",
        "latitude": "46.395416",
        "longtitude": "15.662163"
    },
    {
        "stop_id": "1122900",
        "name": "Rače",
        "latitude": "46.453518",
        "longtitude": "15.663858"
    },
    {
        "stop_id": "1122901",
        "name": "Orehova vas",
        "latitude": "46.47311",
        "longtitude": "15.663486"
    },
    {
        "stop_id": "1122902",
        "name": "Hoče",
        "latitude": "46.501",
        "longtitude": "15.662941"
    },
    {
        "stop_id": "1122903",
        "name": "Cirkovce",
        "latitude": "46.400925",
        "longtitude": "15.724341"
    },
    {
        "stop_id": "1122904",
        "name": "Strnišče",
        "latitude": "46.40077",
        "longtitude": "15.770491"
    },
    {
        "stop_id": "1122905",
        "name": "Kidričevo",
        "latitude": "46.400673",
        "longtitude": "15.800455"
    },
    {
        "stop_id": "1122906",
        "name": "Hajdina",
        "latitude": "46.40321",
        "longtitude": "15.855121"
    },
    {
        "stop_id": "1122907",
        "name": "Ptuj",
        "latitude": "46.422302",
        "longtitude": "15.878913"
    },
    {
        "stop_id": "1122908",
        "name": "Moškanjci",
        "latitude": "46.423374",
        "longtitude": "15.983657"
    },
    {
        "stop_id": "1122909",
        "name": "Osluševci",
        "latitude": "46.419567",
        "longtitude": "16.047993"
    },
    {
        "stop_id": "1122910",
        "name": "Velika Nedelja",
        "latitude": "46.415276",
        "longtitude": "16.105045"
    },
    {
        "stop_id": "1122911",
        "name": "Zamušani",
        "latitude": "46.421455",
        "longtitude": "16.016361"
    },
    {
        "stop_id": "1122912",
        "name": "Šikole",
        "latitude": "46.400997",
        "longtitude": "15.696963"
    },
    {
        "stop_id": "1122913",
        "name": "Maribor",
        "latitude": "46.562225",
        "longtitude": "15.658327"
    },
    {
        "stop_id": "1122914",
        "name": "Maribor Studenci",
        "latitude": "46.554134",
        "longtitude": "15.635134"
    },
    {
        "stop_id": "1122915",
        "name": "Limbuš",
        "latitude": "46.558846",
        "longtitude": "15.582944"
    },
    {
        "stop_id": "1122916",
        "name": "Bistrica ob Dravi",
        "latitude": "46.557735",
        "longtitude": "15.554181"
    },
    {
        "stop_id": "1122917",
        "name": "Ruše",
        "latitude": "46.540955",
        "longtitude": "15.503819"
    },
    {
        "stop_id": "1122918",
        "name": "Fala",
        "latitude": "46.54805",
        "longtitude": "15.451636"
    },
    {
        "stop_id": "1122919",
        "name": "Ruta",
        "latitude": "46.563038",
        "longtitude": "15.43166"
    },
    {
        "stop_id": "1122920",
        "name": "Ožbalt",
        "latitude": "46.574856",
        "longtitude": "15.406379"
    },
    {
        "stop_id": "1122921",
        "name": "Podvelka",
        "latitude": "46.590134",
        "longtitude": "15.329305"
    },
    {
        "stop_id": "1122922",
        "name": "Vuhred elektrarna",
        "latitude": "46.586514",
        "longtitude": "15.279829"
    },
    {
        "stop_id": "1122923",
        "name": "Vuhred",
        "latitude": "46.596558",
        "longtitude": "15.235998"
    },
    {
        "stop_id": "1122924",
        "name": "Vuzenica",
        "latitude": "46.593647",
        "longtitude": "15.158489"
    },
    {
        "stop_id": "1122925",
        "name": "Trbonje",
        "latitude": "46.5949",
        "longtitude": "15.124601"
    },
    {
        "stop_id": "1122926",
        "name": "Maribor Tabor",
        "latitude": "46.55175",
        "longtitude": "15.645434"
    },
    {
        "stop_id": "1122927",
        "name": "Marles",
        "latitude": "46.558853",
        "longtitude": "15.597204"
    },
    {
        "stop_id": "1122928",
        "name": "Ruše tovarna",
        "latitude": "46.54501",
        "longtitude": "15.514753"
    },
    {
        "stop_id": "1122929",
        "name": "Trbonjsko jezero",
        "latitude": "46.59384",
        "longtitude": "15.126286"
    },
    {
        "stop_id": "1122930",
        "name": "Sveti Danijel",
        "latitude": "46.602745",
        "longtitude": "15.063547"
    },
    {
        "stop_id": "1122931",
        "name": "Sveti Vid",
        "latitude": "46.611664",
        "longtitude": "15.188238"
    },
    {
        "stop_id": "1122932",
        "name": "Maribor Sokolska",
        "latitude": "46.556503",
        "longtitude": "15.624896"
    },
    {
        "stop_id": "1122933",
        "name": "Pesnica",
        "latitude": "46.609894",
        "longtitude": "15.680476"
    },
    {
        "stop_id": "1122934",
        "name": "Cirknica",
        "latitude": "46.642445",
        "longtitude": "15.664172"
    },
    {
        "stop_id": "1122935",
        "name": "Šentilj",
        "latitude": "46.674282",
        "longtitude": "15.658054"
    },
    {
        "stop_id": "1122937",
        "name": "Dravograd",
        "latitude": "46.58699",
        "longtitude": "15.026944"
    },
    {
        "stop_id": "1122938",
        "name": "Ravne na Koroškem",
        "latitude": "46.547054",
        "longtitude": "14.963329"
    },
    {
        "stop_id": "1122939",
        "name": "Prevalje",
        "latitude": "46.549976",
        "longtitude": "14.921752"
    },
    {
        "stop_id": "1122940",
        "name": "Holmec",
        "latitude": "46.56634",
        "longtitude": "14.841355"
    },
    {
        "stop_id": "1122941",
        "name": "Podklanc",
        "latitude": "46.574146",
        "longtitude": "15.021187"
    },
    {
        "stop_id": "1122942",
        "name": "Dobrije",
        "latitude": "46.551594",
        "longtitude": "14.990719"
    },
    {
        "stop_id": "1122943",
        "name": "Ormož",
        "latitude": "46.40318",
        "longtitude": "16.156082"
    },
    {
        "stop_id": "1122944",
        "name": "Pušenci",
        "latitude": "46.40979",
        "longtitude": "16.176182"
    },
    {
        "stop_id": "1122945",
        "name": "Pavlovci",
        "latitude": "46.426395",
        "longtitude": "16.179276"
    },
    {
        "stop_id": "1122946",
        "name": "Ivanjkovci",
        "latitude": "46.45868",
        "longtitude": "16.156704"
    },
    {
        "stop_id": "1122947",
        "name": "Mekotnjak",
        "latitude": "46.50097",
        "longtitude": "16.155388"
    },
    {
        "stop_id": "1122948",
        "name": "Ljutomer mesto",
        "latitude": "46.52107",
        "longtitude": "16.199703"
    },
    {
        "stop_id": "1122949",
        "name": "Obrež",
        "latitude": "46.39109",
        "longtitude": "16.225761"
    },
    {
        "stop_id": "1122950",
        "name": "Središče",
        "latitude": "46.389145",
        "longtitude": "16.277159"
    },
    {
        "stop_id": "1122951",
        "name": "Frankovci",
        "latitude": "46.394917",
        "longtitude": "16.19528"
    },
    {
        "stop_id": "1122952",
        "name": "Ljutomer",
        "latitude": "46.528645",
        "longtitude": "16.18912"
    },
    {
        "stop_id": "1122953",
        "name": "Veržej",
        "latitude": "46.574272",
        "longtitude": "16.18208"
    },
    {
        "stop_id": "1122954",
        "name": "Grlava",
        "latitude": "46.557087",
        "longtitude": "16.174135"
    },
    {
        "stop_id": "1122955",
        "name": "Lipovci",
        "latitude": "46.623783",
        "longtitude": "16.211365"
    },
    {
        "stop_id": "1122956",
        "name": "Murska Sobota",
        "latitude": "46.658985",
        "longtitude": "16.171656"
    },
    {
        "stop_id": "1122957",
        "name": "Puconci",
        "latitude": "46.703354",
        "longtitude": "16.153616"
    },
    {
        "stop_id": "1122959",
        "name": "Mačkovci",
        "latitude": "46.783337",
        "longtitude": "16.164734"
    },
    {
        "stop_id": "1122960",
        "name": "Gornji Petrovci",
        "latitude": "46.800735",
        "longtitude": "16.218296"
    },
    {
        "stop_id": "1122961",
        "name": "Šalovci",
        "latitude": "46.82116",
        "longtitude": "16.282068"
    },
    {
        "stop_id": "1122962",
        "name": "Hodoš",
        "latitude": "46.820133",
        "longtitude": "16.329355"
    },
    {
        "stop_id": "1122963",
        "name": "Stranje",
        "latitude": "46.21744",
        "longtitude": "15.560181"
    },
    {
        "stop_id": "1122964",
        "name": "Mestinje",
        "latitude": "46.23505",
        "longtitude": "15.564455"
    },
    {
        "stop_id": "1122965",
        "name": "Podplat",
        "latitude": "46.24407",
        "longtitude": "15.573188"
    },
    {
        "stop_id": "1122966",
        "name": "Rogaška Slatina",
        "latitude": "46.231888",
        "longtitude": "15.638516"
    },
    {
        "stop_id": "1122967",
        "name": "Rogatec",
        "latitude": "46.224472",
        "longtitude": "15.69788"
    },
    {
        "stop_id": "1122968",
        "name": "Dobovec",
        "latitude": "46.220715",
        "longtitude": "15.751609"
    },
    {
        "stop_id": "1122969",
        "name": "Sveti Rok ob Sotli",
        "latitude": "46.2088",
        "longtitude": "15.760075"
    },
    {
        "stop_id": "1122970",
        "name": "Tekačevo",
        "latitude": "46.240368",
        "longtitude": "15.618497"
    },
    {
        "stop_id": "1122971",
        "name": "Rjavica",
        "latitude": "46.21976",
        "longtitude": "15.652333"
    },
    {
        "stop_id": "1122972",
        "name": "Vidina",
        "latitude": "46.216724",
        "longtitude": "15.729684"
    },
    {
        "stop_id": "1122973",
        "name": "Pristava",
        "latitude": "46.19875",
        "longtitude": "15.581811"
    },
    {
        "stop_id": "1122974",
        "name": "Sodna vas",
        "latitude": "46.176033",
        "longtitude": "15.602077"
    },
    {
        "stop_id": "1122975",
        "name": "Podčetrtek",
        "latitude": "46.15036",
        "longtitude": "15.599624"
    },
    {
        "stop_id": "1122976",
        "name": "Imeno",
        "latitude": "46.126976",
        "longtitude": "15.601228"
    },
    {
        "stop_id": "1122977",
        "name": "Podčetrtek Toplice",
        "latitude": "46.165936",
        "longtitude": "15.60475"
    },
    {
        "stop_id": "1122978",
        "name": "Atomske Toplice hotel",
        "latitude": "46.158188",
        "longtitude": "15.608617"
    },
    {
        "stop_id": "1122979",
        "name": "Petrovče",
        "latitude": "46.246113",
        "longtitude": "15.189793"
    },
    {
        "stop_id": "1122980",
        "name": "Žalec",
        "latitude": "46.24952",
        "longtitude": "15.166249"
    },
    {
        "stop_id": "1122981",
        "name": "Šempeter v Savinjski dolini",
        "latitude": "46.260612",
        "longtitude": "15.112233"
    },
    {
        "stop_id": "1122982",
        "name": "Polzela",
        "latitude": "46.28262",
        "longtitude": "15.065945"
    },
    {
        "stop_id": "1122983",
        "name": "Šmartno ob Paki",
        "latitude": "46.328068",
        "longtitude": "15.03786"
    },
    {
        "stop_id": "1122984",
        "name": "Paška vas",
        "latitude": "46.341446",
        "longtitude": "15.019712"
    },
    {
        "stop_id": "1122985",
        "name": "Šoštanj",
        "latitude": "46.376793",
        "longtitude": "15.049738"
    },
    {
        "stop_id": "1122986",
        "name": "Velenje Pesje",
        "latitude": "46.36811",
        "longtitude": "15.081302"
    },
    {
        "stop_id": "1122987",
        "name": "Velenje",
        "latitude": "46.36349",
        "longtitude": "15.104245"
    },
    {
        "stop_id": "1122988",
        "name": "Celje Lava",
        "latitude": "46.236557",
        "longtitude": "15.259622"
    },
    {
        "stop_id": "1122989",
        "name": "Florjan",
        "latitude": "46.381207",
        "longtitude": "15.030048"
    },
    {
        "stop_id": "1122990",
        "name": "Brezovica",
        "latitude": "46.02133",
        "longtitude": "14.42661"
    },
    {
        "stop_id": "1122991",
        "name": "Notranje Gorice",
        "latitude": "45.98755",
        "longtitude": "14.402573"
    },
    {
        "stop_id": "1122992",
        "name": "Preserje",
        "latitude": "45.96575",
        "longtitude": "14.396146"
    },
    {
        "stop_id": "1122993",
        "name": "Borovnica",
        "latitude": "45.921448",
        "longtitude": "14.368143"
    },
    {
        "stop_id": "1122995",
        "name": "Logatec",
        "latitude": "45.91769",
        "longtitude": "14.235851"
    },
    {
        "stop_id": "1122996",
        "name": "Planina",
        "latitude": "45.86168",
        "longtitude": "14.275062"
    },
    {
        "stop_id": "1122997",
        "name": "Rakek",
        "latitude": "45.815273",
        "longtitude": "14.313186"
    },
    {
        "stop_id": "1122998",
        "name": "Postojna",
        "latitude": "45.773067",
        "longtitude": "14.221721"
    },
    {
        "stop_id": "1122999",
        "name": "Prestranek",
        "latitude": "45.728508",
        "longtitude": "14.185641"
    },
    {
        "stop_id": "1123000",
        "name": "Ljubljana Tivoli",
        "latitude": "46.05019",
        "longtitude": "14.494096"
    },
    {
        "stop_id": "1123001",
        "name": "Pivka",
        "latitude": "45.675262",
        "longtitude": "14.191257"
    },
    {
        "stop_id": "1123002",
        "name": "Košana",
        "latitude": "45.67056",
        "longtitude": "14.105846"
    },
    {
        "stop_id": "1123003",
        "name": "Gornje Ležeče",
        "latitude": "45.66628",
        "longtitude": "14.072194"
    },
    {
        "stop_id": "1123004",
        "name": "Divača",
        "latitude": "45.681625",
        "longtitude": "13.964776"
    },
    {
        "stop_id": "1123005",
        "name": "Rodik",
        "latitude": "45.627132",
        "longtitude": "13.975277"
    },
    {
        "stop_id": "1123006",
        "name": "Hrpelje-Kozina",
        "latitude": "45.603703",
        "longtitude": "13.935304"
    },
    {
        "stop_id": "1123007",
        "name": "Povir",
        "latitude": "45.699345",
        "longtitude": "13.930591"
    },
    {
        "stop_id": "1123008",
        "name": "Prešnica",
        "latitude": "45.57047",
        "longtitude": "13.941199"
    },
    {
        "stop_id": "1123009",
        "name": "Podgorje",
        "latitude": "45.53443",
        "longtitude": "13.942937"
    },
    {
        "stop_id": "1123011",
        "name": "Rakitovec",
        "latitude": "45.465958",
        "longtitude": "13.955392"
    },
    {
        "stop_id": "1123012",
        "name": "Koper",
        "latitude": "45.53897",
        "longtitude": "13.738534"
    },
    {
        "stop_id": "1123013",
        "name": "Črnotiče",
        "latitude": "45.551933",
        "longtitude": "13.891554"
    },
    {
        "stop_id": "1123014",
        "name": "Hrastovlje",
        "latitude": "45.501057",
        "longtitude": "13.90938"
    },
    {
        "stop_id": "1123015",
        "name": "Sežana",
        "latitude": "45.70404",
        "longtitude": "13.86363"
    },
    {
        "stop_id": "1123016",
        "name": "Kreplje",
        "latitude": "45.74207",
        "longtitude": "13.827374"
    },
    {
        "stop_id": "1123017",
        "name": "Kopriva",
        "latitude": "45.784836",
        "longtitude": "13.831795"
    },
    {
        "stop_id": "1123018",
        "name": "Štanjel",
        "latitude": "45.8179",
        "longtitude": "13.848283"
    },
    {
        "stop_id": "1123019",
        "name": "Branik",
        "latitude": "45.855907",
        "longtitude": "13.784252"
    },
    {
        "stop_id": "1123020",
        "name": "Steske",
        "latitude": "45.875965",
        "longtitude": "13.757586"
    },
    {
        "stop_id": "1123021",
        "name": "Dornberk",
        "latitude": "45.88592",
        "longtitude": "13.734063"
    },
    {
        "stop_id": "1123022",
        "name": "Prvačina",
        "latitude": "45.88745",
        "longtitude": "13.722822"
    },
    {
        "stop_id": "1123023",
        "name": "Okroglica",
        "latitude": "45.89906",
        "longtitude": "13.6902895"
    },
    {
        "stop_id": "1123024",
        "name": "Volčja Draga",
        "latitude": "45.905773",
        "longtitude": "13.675747"
    },
    {
        "stop_id": "1123025",
        "name": "Šempeter pri Gorici",
        "latitude": "45.928154",
        "longtitude": "13.646984"
    },
    {
        "stop_id": "1123032",
        "name": "Nova Gorica",
        "latitude": "45.958046",
        "longtitude": "13.636717"
    },
    {
        "stop_id": "1123033",
        "name": "Solkan",
        "latitude": "45.972603",
        "longtitude": "13.646294"
    },
    {
        "stop_id": "1123034",
        "name": "Plave",
        "latitude": "46.04615",
        "longtitude": "13.589833"
    },
    {
        "stop_id": "1123035",
        "name": "Anhovo",
        "latitude": "46.05793",
        "longtitude": "13.617081"
    },
    {
        "stop_id": "1123036",
        "name": "Kanal",
        "latitude": "46.08367",
        "longtitude": "13.631696"
    },
    {
        "stop_id": "1123037",
        "name": "Avče",
        "latitude": "46.107998",
        "longtitude": "13.68452"
    },
    {
        "stop_id": "1123038",
        "name": "Most na Soči",
        "latitude": "46.146313",
        "longtitude": "13.7593565"
    },
    {
        "stop_id": "1123039",
        "name": "Podmelec",
        "latitude": "46.159332",
        "longtitude": "13.813924"
    },
    {
        "stop_id": "1123040",
        "name": "Grahovo",
        "latitude": "46.151375",
        "longtitude": "13.857039"
    },
    {
        "stop_id": "1123041",
        "name": "Hudajužna",
        "latitude": "46.179726",
        "longtitude": "13.919896"
    },
    {
        "stop_id": "1123042",
        "name": "Podbrdo",
        "latitude": "46.209152",
        "longtitude": "13.967034"
    },
    {
        "stop_id": "1123043",
        "name": "Bohinjska Bistrica",
        "latitude": "46.274273",
        "longtitude": "13.959222"
    },
    {
        "stop_id": "1123044",
        "name": "Nomenj",
        "latitude": "46.288975",
        "longtitude": "14.002605"
    },
    {
        "stop_id": "1123045",
        "name": "Bohinjska Bela",
        "latitude": "46.33838",
        "longtitude": "14.060484"
    },
    {
        "stop_id": "1123046",
        "name": "Bled Jezero",
        "latitude": "46.368225",
        "longtitude": "14.08232"
    },
    {
        "stop_id": "1123047",
        "name": "Podhom",
        "latitude": "46.38746",
        "longtitude": "14.094341"
    },
    {
        "stop_id": "1123048",
        "name": "Vintgar",
        "latitude": "46.41021",
        "longtitude": "14.098796"
    },
    {
        "stop_id": "1123049",
        "name": "Kočna",
        "latitude": "46.423775",
        "longtitude": "14.07865"
    },
    {
        "stop_id": "1123050",
        "name": "Dutovlje",
        "latitude": "45.76484",
        "longtitude": "13.826233"
    },
    {
        "stop_id": "1123051",
        "name": "Narin",
        "latitude": "45.641212",
        "longtitude": "14.19823"
    },
    {
        "stop_id": "1123052",
        "name": "Kilovče",
        "latitude": "45.615654",
        "longtitude": "14.1860695"
    },
    {
        "stop_id": "1123053",
        "name": "Ilirska Bistrica",
        "latitude": "45.569168",
        "longtitude": "14.235973"
    },
    {
        "stop_id": "1123054",
        "name": "Maribor Tezno",
        "latitude": "46.539047",
        "longtitude": "15.651134"
    },
    {
        "stop_id": "1123055",
        "name": "Abram",
        "latitude": "45.956417",
        "longtitude": "15.569628"
    },
    {
        "stop_id": "1123056",
        "name": "Abram",
        "latitude": "45.95642",
        "longtitude": "15.569711"
    },
    {
        "stop_id": "1123058",
        "name": "Adlešiči",
        "latitude": "45.52183",
        "longtitude": "15.312184"
    },
    {
        "stop_id": "1123059",
        "name": "Adlešiči",
        "latitude": "45.52197",
        "longtitude": "15.312275"
    },
    {
        "stop_id": "1123060",
        "name": "Adrijanci",
        "latitude": "46.81946",
        "longtitude": "16.237114"
    },
    {
        "stop_id": "1123061",
        "name": "Adrijanci",
        "latitude": "46.819546",
        "longtitude": "16.23706"
    },
    {
        "stop_id": "1123062",
        "name": "Ajba",
        "latitude": "46.100822",
        "longtitude": "13.649654"
    },
    {
        "stop_id": "1123063",
        "name": "Ajba",
        "latitude": "46.100765",
        "longtitude": "13.649735"
    },
    {
        "stop_id": "1123064",
        "name": "Ajdovščina",
        "latitude": "45.886627",
        "longtitude": "13.90143"
    },
    {
        "stop_id": "1123065",
        "name": "Ajdovščina ribnik",
        "latitude": "45.88375",
        "longtitude": "13.911501"
    },
    {
        "stop_id": "1123066",
        "name": "Ajdovščina ribnik",
        "latitude": "45.881725",
        "longtitude": "13.912042"
    },
    {
        "stop_id": "1123067",
        "name": "Ajdovščina Š",
        "latitude": "45.890427",
        "longtitude": "13.90053"
    },
    {
        "stop_id": "1123068",
        "name": "Ajševica sp.",
        "latitude": "45.949074",
        "longtitude": "13.702812"
    },
    {
        "stop_id": "1123069",
        "name": "Ajševica sp.",
        "latitude": "45.9493",
        "longtitude": "13.702333"
    },
    {
        "stop_id": "1123070",
        "name": "Ambrožič",
        "latitude": "45.635452",
        "longtitude": "14.139208"
    },
    {
        "stop_id": "1123071",
        "name": "Ambrožič",
        "latitude": "45.6354",
        "longtitude": "14.139472"
    },
    {
        "stop_id": "1123072",
        "name": "Ambrus",
        "latitude": "45.828392",
        "longtitude": "14.816641"
    },
    {
        "stop_id": "1123073",
        "name": "Ambrus",
        "latitude": "45.828205",
        "longtitude": "14.816617"
    },
    {
        "stop_id": "1123074",
        "name": "Andlovec",
        "latitude": "45.87699",
        "longtitude": "13.917126"
    },
    {
        "stop_id": "1123075",
        "name": "Andlovec",
        "latitude": "45.876904",
        "longtitude": "13.916968"
    },
    {
        "stop_id": "1123076",
        "name": "Andraž nad Polzelo",
        "latitude": "46.330845",
        "longtitude": "15.096901"
    },
    {
        "stop_id": "1123077",
        "name": "Andraž nad Polzelo",
        "latitude": "46.3308",
        "longtitude": "15.09707"
    },
    {
        "stop_id": "1123078",
        "name": "Andraž nad Polzelo K",
        "latitude": "46.31979",
        "longtitude": "15.094296"
    },
    {
        "stop_id": "1123079",
        "name": "Andraž nad Polzelo K",
        "latitude": "46.320175",
        "longtitude": "15.09452"
    },
    {
        "stop_id": "1123080",
        "name": "Andraž nad Polzelo Poznič",
        "latitude": "46.30623",
        "longtitude": "15.090055"
    },
    {
        "stop_id": "1123081",
        "name": "Andraž nad Polzelo Poznič",
        "latitude": "46.30705",
        "longtitude": "15.089294"
    },
    {
        "stop_id": "1123082",
        "name": "Andraž nad Polzelo vrh",
        "latitude": "46.314137",
        "longtitude": "15.091026"
    },
    {
        "stop_id": "1123083",
        "name": "Andraž nad Polzelo vrh",
        "latitude": "46.314117",
        "longtitude": "15.091221"
    },
    {
        "stop_id": "1123084",
        "name": "Andrejci GD",
        "latitude": "46.721947",
        "longtitude": "16.226463"
    },
    {
        "stop_id": "1123085",
        "name": "Andrejci st.š.",
        "latitude": "46.732124",
        "longtitude": "16.21685"
    },
    {
        "stop_id": "1123086",
        "name": "Andrejci st.š.",
        "latitude": "46.7321",
        "longtitude": "16.216686"
    },
    {
        "stop_id": "1123088",
        "name": "Andrejci Trokšarov breg K",
        "latitude": "46.73054",
        "longtitude": "16.242159"
    },
    {
        "stop_id": "1123089",
        "name": "Andrejci Trokšarov breg K",
        "latitude": "46.730476",
        "longtitude": "16.24242"
    },
    {
        "stop_id": "1123094",
        "name": "Anhovo K",
        "latitude": "46.05567",
        "longtitude": "13.626217"
    },
    {
        "stop_id": "1123095",
        "name": "Anhovo K",
        "latitude": "46.05588",
        "longtitude": "13.626254"
    },
    {
        "stop_id": "1123096",
        "name": "Ankaran bol.",
        "latitude": "45.571743",
        "longtitude": "13.748016"
    },
    {
        "stop_id": "1123097",
        "name": "Ankaran bol.",
        "latitude": "45.571873",
        "longtitude": "13.748023"
    },
    {
        "stop_id": "1123098",
        "name": "Ankaran K",
        "latitude": "45.55747",
        "longtitude": "13.786089"
    },
    {
        "stop_id": "1123099",
        "name": "Ankaran K",
        "latitude": "45.557438",
        "longtitude": "13.785773"
    },
    {
        "stop_id": "1123101",
        "name": "Ankaran t",
        "latitude": "45.57928",
        "longtitude": "13.735769"
    },
    {
        "stop_id": "1123102",
        "name": "Ankaran t",
        "latitude": "45.578506",
        "longtitude": "13.736691"
    },
    {
        "stop_id": "1123103",
        "name": "Anton na Pohorju K",
        "latitude": "46.55315",
        "longtitude": "15.231259"
    },
    {
        "stop_id": "1123104",
        "name": "Anton na Pohorju K",
        "latitude": "46.55271",
        "longtitude": "15.231101"
    },
    {
        "stop_id": "1123105",
        "name": "Anžon",
        "latitude": "46.026173",
        "longtitude": "14.157794"
    },
    {
        "stop_id": "1123106",
        "name": "Anžon",
        "latitude": "46.026234",
        "longtitude": "14.15784"
    },
    {
        "stop_id": "1123107",
        "name": "Apače les.ind.",
        "latitude": "46.696915",
        "longtitude": "15.898321"
    },
    {
        "stop_id": "1123108",
        "name": "Apače les.ind.",
        "latitude": "46.697155",
        "longtitude": "15.897102"
    },
    {
        "stop_id": "1123113",
        "name": "Apače/G.Radgoni",
        "latitude": "46.69777",
        "longtitude": "15.9069"
    },
    {
        "stop_id": "1123114",
        "name": "Apače/G.Radgoni kovač K",
        "latitude": "46.657986",
        "longtitude": "15.83854"
    },
    {
        "stop_id": "1123115",
        "name": "Apače/G.Radgoni kovač K",
        "latitude": "46.65806",
        "longtitude": "15.838519"
    },
    {
        "stop_id": "1123117",
        "name": "Apnenca",
        "latitude": "46.037563",
        "longtitude": "15.688853"
    },
    {
        "stop_id": "1123118",
        "name": "Apnenca",
        "latitude": "46.03776",
        "longtitude": "15.688737"
    },
    {
        "stop_id": "1123120",
        "name": "Apnenik pri V.Trnu",
        "latitude": "45.95402",
        "longtitude": "15.403509"
    },
    {
        "stop_id": "1123122",
        "name": "Arclin",
        "latitude": "46.279285",
        "longtitude": "15.301105"
    },
    {
        "stop_id": "1123123",
        "name": "Arclin",
        "latitude": "46.279045",
        "longtitude": "15.301069"
    },
    {
        "stop_id": "1123125",
        "name": "Arclin K",
        "latitude": "46.27427",
        "longtitude": "15.304423"
    },
    {
        "stop_id": "1123126",
        "name": "Arclin K",
        "latitude": "46.274364",
        "longtitude": "15.304328"
    },
    {
        "stop_id": "1123129",
        "name": "Ardro pri Raki",
        "latitude": "45.927498",
        "longtitude": "15.392597"
    },
    {
        "stop_id": "1123130",
        "name": "Ardro pri Raki",
        "latitude": "45.927464",
        "longtitude": "15.392724"
    },
    {
        "stop_id": "1123131",
        "name": "Arja vas",
        "latitude": "46.24859",
        "longtitude": "15.189631"
    },
    {
        "stop_id": "1123132",
        "name": "Arja vas",
        "latitude": "46.248882",
        "longtitude": "15.189574"
    },
    {
        "stop_id": "1123133",
        "name": "Arnež",
        "latitude": "46.305836",
        "longtitude": "14.498416"
    },
    {
        "stop_id": "1123134",
        "name": "Arnež",
        "latitude": "46.305676",
        "longtitude": "14.497926"
    },
    {
        "stop_id": "1123135",
        "name": "Arnovo selo",
        "latitude": "45.96385",
        "longtitude": "15.566863"
    },
    {
        "stop_id": "1123136",
        "name": "Arnovo selo",
        "latitude": "45.96385",
        "longtitude": "15.566752"
    },
    {
        "stop_id": "1123137",
        "name": "Artiče",
        "latitude": "45.952995",
        "longtitude": "15.583578"
    },
    {
        "stop_id": "1123138",
        "name": "Artiče",
        "latitude": "45.953808",
        "longtitude": "15.584654"
    },
    {
        "stop_id": "1123139",
        "name": "Artmanja vas",
        "latitude": "45.86992",
        "longtitude": "14.986766"
    },
    {
        "stop_id": "1123140",
        "name": "Artmanja vas",
        "latitude": "45.87006",
        "longtitude": "14.986865"
    },
    {
        "stop_id": "1123141",
        "name": "Arto",
        "latitude": "45.984203",
        "longtitude": "15.396638"
    },
    {
        "stop_id": "1123142",
        "name": "Arto",
        "latitude": "45.984383",
        "longtitude": "15.396549"
    },
    {
        "stop_id": "1123143",
        "name": "Atomske toplice",
        "latitude": "46.157917",
        "longtitude": "15.608381"
    },
    {
        "stop_id": "1123144",
        "name": "Atomske toplice",
        "latitude": "46.157463",
        "longtitude": "15.608353"
    },
    {
        "stop_id": "1123147",
        "name": "Avber",
        "latitude": "45.776165",
        "longtitude": "13.870484"
    },
    {
        "stop_id": "1123148",
        "name": "Avber",
        "latitude": "45.776325",
        "longtitude": "13.870468"
    },
    {
        "stop_id": "1123149",
        "name": "Avče",
        "latitude": "46.10105",
        "longtitude": "13.682904"
    },
    {
        "stop_id": "1123150",
        "name": "Avče",
        "latitude": "46.10112",
        "longtitude": "13.68305"
    },
    {
        "stop_id": "1123151",
        "name": "Avrelijo",
        "latitude": "46.082016",
        "longtitude": "15.019534"
    },
    {
        "stop_id": "1123152",
        "name": "Avrelijo",
        "latitude": "46.08236",
        "longtitude": "15.019384"
    },
    {
        "stop_id": "1123153",
        "name": "Avžlak",
        "latitude": "45.880947",
        "longtitude": "13.97193"
    },
    {
        "stop_id": "1123154",
        "name": "Avžlak",
        "latitude": "45.880962",
        "longtitude": "13.972148"
    },
    {
        "stop_id": "1123155",
        "name": "Babiči",
        "latitude": "45.50246",
        "longtitude": "13.779211"
    },
    {
        "stop_id": "1123156",
        "name": "Babiči",
        "latitude": "45.502316",
        "longtitude": "13.779365"
    },
    {
        "stop_id": "1123157",
        "name": "Babiči K",
        "latitude": "45.500706",
        "longtitude": "13.7824135"
    },
    {
        "stop_id": "1123158",
        "name": "Babiči K",
        "latitude": "45.501034",
        "longtitude": "13.782423"
    },
    {
        "stop_id": "1123159",
        "name": "Babna Brda Čakš",
        "latitude": "46.18133",
        "longtitude": "15.482935"
    },
    {
        "stop_id": "1123160",
        "name": "Babna Brda Čakš",
        "latitude": "46.181316",
        "longtitude": "15.483027"
    },
    {
        "stop_id": "1123161",
        "name": "Babna Gora/Žusmu",
        "latitude": "46.166656",
        "longtitude": "15.491377"
    },
    {
        "stop_id": "1123163",
        "name": "Babno Polje",
        "latitude": "45.648815",
        "longtitude": "14.551803"
    },
    {
        "stop_id": "1123164",
        "name": "Babno Polje",
        "latitude": "45.648804",
        "longtitude": "14.552106"
    },
    {
        "stop_id": "1123165",
        "name": "Bač",
        "latitude": "45.633503",
        "longtitude": "14.257261"
    },
    {
        "stop_id": "1123166",
        "name": "Bač",
        "latitude": "45.63346",
        "longtitude": "14.257145"
    },
    {
        "stop_id": "1123167",
        "name": "Bača pri Modreju",
        "latitude": "46.145187",
        "longtitude": "13.766815"
    },
    {
        "stop_id": "1123168",
        "name": "Bača pri Modreju",
        "latitude": "46.145485",
        "longtitude": "13.765547"
    },
    {
        "stop_id": "1123169",
        "name": "Bača pri Modreju",
        "latitude": "46.145073",
        "longtitude": "13.767012"
    },
    {
        "stop_id": "1123171",
        "name": "Bakovci",
        "latitude": "46.617958",
        "longtitude": "16.14791"
    },
    {
        "stop_id": "1123173",
        "name": "Bakovci",
        "latitude": "46.61804",
        "longtitude": "16.147974"
    },
    {
        "stop_id": "1123174",
        "name": "Bakovnik Lidl",
        "latitude": "46.210052",
        "longtitude": "14.598815"
    },
    {
        "stop_id": "1123175",
        "name": "Bakovnik Lidl",
        "latitude": "46.210136",
        "longtitude": "14.599036"
    },
    {
        "stop_id": "1123176",
        "name": "Bakrc",
        "latitude": "45.8098",
        "longtitude": "14.84827"
    },
    {
        "stop_id": "1123180",
        "name": "Balkovci",
        "latitude": "45.46017",
        "longtitude": "15.315328"
    },
    {
        "stop_id": "1123181",
        "name": "Balkovci",
        "latitude": "45.460247",
        "longtitude": "15.315421"
    },
    {
        "stop_id": "1123182",
        "name": "Banjaloka",
        "latitude": "45.512283",
        "longtitude": "14.873385"
    },
    {
        "stop_id": "1123183",
        "name": "Banjaloka",
        "latitude": "45.512135",
        "longtitude": "14.873822"
    },
    {
        "stop_id": "1123184",
        "name": "Banjšice",
        "latitude": "46.052925",
        "longtitude": "13.711034"
    },
    {
        "stop_id": "1123185",
        "name": "Banjšice",
        "latitude": "46.053017",
        "longtitude": "13.710945"
    },
    {
        "stop_id": "1123186",
        "name": "Banjšice Š",
        "latitude": "46.05947",
        "longtitude": "13.707714"
    },
    {
        "stop_id": "1123187",
        "name": "Banjšice Š",
        "latitude": "46.05941",
        "longtitude": "13.70762"
    },
    {
        "stop_id": "1123188",
        "name": "Barbara",
        "latitude": "46.36679",
        "longtitude": "15.428327"
    },
    {
        "stop_id": "1123189",
        "name": "Barbara",
        "latitude": "46.36635",
        "longtitude": "15.4277525"
    },
    {
        "stop_id": "1123190",
        "name": "Baredi",
        "latitude": "45.520706",
        "longtitude": "13.6623"
    },
    {
        "stop_id": "1123191",
        "name": "Baredi",
        "latitude": "45.520706",
        "longtitude": "13.662159"
    },
    {
        "stop_id": "1123195",
        "name": "Bašelj",
        "latitude": "46.3143",
        "longtitude": "14.401087"
    },
    {
        "stop_id": "1123196",
        "name": "Bate",
        "latitude": "46.045086",
        "longtitude": "13.677267"
    },
    {
        "stop_id": "1123197",
        "name": "Bate",
        "latitude": "46.045033",
        "longtitude": "13.677274"
    },
    {
        "stop_id": "1123198",
        "name": "Batuje",
        "latitude": "45.893772",
        "longtitude": "13.777002"
    },
    {
        "stop_id": "1123199",
        "name": "Batuje",
        "latitude": "45.893787",
        "longtitude": "13.777416"
    },
    {
        "stop_id": "1123200",
        "name": "Batuje tov.K",
        "latitude": "45.891296",
        "longtitude": "13.770636"
    },
    {
        "stop_id": "1123201",
        "name": "Batuje tov.K",
        "latitude": "45.89148",
        "longtitude": "13.771166"
    },
    {
        "stop_id": "1123202",
        "name": "Bazara",
        "latitude": "45.915188",
        "longtitude": "13.664229"
    },
    {
        "stop_id": "1123203",
        "name": "Bazara",
        "latitude": "45.915077",
        "longtitude": "13.664161"
    },
    {
        "stop_id": "1123208",
        "name": "Bedenj",
        "latitude": "45.537487",
        "longtitude": "15.2697315"
    },
    {
        "stop_id": "1123209",
        "name": "Bedenj",
        "latitude": "45.537457",
        "longtitude": "15.269564"
    },
    {
        "stop_id": "1123210",
        "name": "Begant",
        "latitude": "46.57701",
        "longtitude": "15.0286045"
    },
    {
        "stop_id": "1123211",
        "name": "Begant",
        "latitude": "46.576195",
        "longtitude": "15.0297365"
    },
    {
        "stop_id": "1123213",
        "name": "Begunje na Gor.",
        "latitude": "46.375095",
        "longtitude": "14.198792"
    },
    {
        "stop_id": "1123214",
        "name": "Begunje na Gor.Elan",
        "latitude": "46.371716",
        "longtitude": "14.194603"
    },
    {
        "stop_id": "1123215",
        "name": "Begunje na Gor.Elan",
        "latitude": "46.37149",
        "longtitude": "14.194377"
    },
    {
        "stop_id": "1123216",
        "name": "Begunje na Gor.žaga",
        "latitude": "46.37965",
        "longtitude": "14.2122"
    },
    {
        "stop_id": "1123217",
        "name": "Begunje na Gor.žaga",
        "latitude": "46.379574",
        "longtitude": "14.212206"
    },
    {
        "stop_id": "1123219",
        "name": "Begunje pri Cerknici",
        "latitude": "45.81233",
        "longtitude": "14.374536"
    },
    {
        "stop_id": "1123220",
        "name": "Begunje pri Cerknici",
        "latitude": "45.812077",
        "longtitude": "14.374569"
    },
    {
        "stop_id": "1123221",
        "name": "Begunje pri Cerknici PTT",
        "latitude": "45.818657",
        "longtitude": "14.382868"
    },
    {
        "stop_id": "1123222",
        "name": "Begunje pri Cerknici PTT",
        "latitude": "45.818787",
        "longtitude": "14.382767"
    },
    {
        "stop_id": "1123223",
        "name": "Bela/Motniku",
        "latitude": "46.215637",
        "longtitude": "14.87319"
    },
    {
        "stop_id": "1123224",
        "name": "Bela/Motniku",
        "latitude": "46.2156",
        "longtitude": "14.873241"
    },
    {
        "stop_id": "1123225",
        "name": "Bela/Špitaliču",
        "latitude": "46.213646",
        "longtitude": "14.85935"
    },
    {
        "stop_id": "1123226",
        "name": "Bela/Špitaliču",
        "latitude": "46.213703",
        "longtitude": "14.85939"
    },
    {
        "stop_id": "1123227",
        "name": "Belca",
        "latitude": "46.471146",
        "longtitude": "13.918335"
    },
    {
        "stop_id": "1123228",
        "name": "Belca",
        "latitude": "46.471626",
        "longtitude": "13.916133"
    },
    {
        "stop_id": "1123229",
        "name": "Belca pri mostu",
        "latitude": "46.47593",
        "longtitude": "13.907319"
    },
    {
        "stop_id": "1123230",
        "name": "Belca pri mostu",
        "latitude": "46.476154",
        "longtitude": "13.907799"
    },
    {
        "stop_id": "1123231",
        "name": "Bele Vode Razpodovnik",
        "latitude": "46.404427",
        "longtitude": "14.970588"
    },
    {
        "stop_id": "1123232",
        "name": "Bele Vode Razpodovnik",
        "latitude": "46.404373",
        "longtitude": "14.970532"
    },
    {
        "stop_id": "1123233",
        "name": "Bele Vode Slivnik",
        "latitude": "46.4077",
        "longtitude": "14.964474"
    },
    {
        "stop_id": "1123234",
        "name": "Bele Vode Slivnik",
        "latitude": "46.40765",
        "longtitude": "14.96446"
    },
    {
        "stop_id": "1123237",
        "name": "Beli kamen",
        "latitude": "45.982857",
        "longtitude": "13.755977"
    },
    {
        "stop_id": "1123240",
        "name": "Beli Potok Laznik",
        "latitude": "46.345753",
        "longtitude": "15.340032"
    },
    {
        "stop_id": "1123241",
        "name": "Beli Potok Laznik",
        "latitude": "46.345425",
        "longtitude": "15.339255"
    },